~Version Information
 VERS. 2.0                             : CWLS Log ASCII Standard - Version 2.0
 WRAP. NO                              : One line per depth step
 PROG.                                 : SeisWare LAS Export
#
~Well Information
#MNEM.UNIT     DATA                    : DESCRIPTION
#----.----     ---------               : -----------------
 STRT.M        1098.0000               : Start Depth
 STOP.M        2633.4000               : End Depth
 STEP.M           0.2000               : Depth Increment
 NULL.          -999.250               : Null Value
 WELL.         DUCE TABLELAND V1U 8A- 22-2-9        : Common Well Name
 UWI .         111082200209W200        : Unique Well ID
 FLD .         TABLELAND               : Field Name
 PROV.         Saskatchewan            : Province / State
#
~Parameter Information
#MNEM.UNIT     VALUE                   : DESCRIPTION
#----.----     ---------               : -----------------
 EREF.M         570.2000               : Elevation of Depth Reference
 DREF.         KB                      : Depth Reference
 EGL .M         563.3000               : Ground Level Elevation
 EKB .M         570.2000               : Kelly Bushing Elevation
#
~Other Information
# SeisWare LAS Export
#
~Curve Information
#MNEM.UNIT        API CODE             : CURVE DESCRIPTION
#----.----        ---------            : -----------------
 DEPT.M                                : Depth
 DEN .K/M3                             : HRDD STANDARD RESOLUTION FORMATION DENSITY
 DENPOR.%                                : 9       COMPRESSIONAL TO SHEAR VELOCITY RATIO
 DT  .US/M                             : 3       DELTA-T COMPRESSIONAL, RECEIVER ARRAY - MONOPOLE P&S
 SONPOR.%                                : 8       POISSON SHEAR/COMPRESSIONAL RATIO
 POR .%                                : Porosity
#
~A     DEPT         DEN      DENPOR          DT      SONPOR         POR
  1098.0000   2456.0000     25.5560    301.3000     34.1570   -999.2500
  1098.2000   2478.0000     24.1980    304.6000     34.8670   -999.2500
  1098.4000   2468.0000     24.8150    305.1000     34.9750   -999.2500
  1098.6000   2446.0000     26.1730    305.8000     35.1260   -999.2500
  1098.8000   2468.0000     24.8150    313.5000     36.7840   -999.2500
  1099.0000   2436.0000     26.7900    322.8000     38.7870   -999.2500
  1099.2000   2444.0000     26.2960    329.9000     40.3170   -999.2500
  1099.4000   2450.0000     25.9260    320.4000     38.2700   -999.2500
  1099.6000   2436.0000     26.7900    308.2000     35.6430   -999.2500
  1099.8000   2446.0000     26.1730    297.7000     33.3810   -999.2500
  1100.0000   2574.0000     18.2720    294.5000     32.6920   -999.2500
  1100.2000   2654.0000     13.3330    277.8000     29.0950   -999.2500
  1100.4000   2804.0000      4.0740    255.7000     24.3350   -999.2500
  1100.6000   2542.0000     20.2470    278.4000     29.2240   -999.2500
  1100.8000   2436.0000     26.7900    303.4000     34.6090   -999.2500
  1101.0000   2434.0000     26.9140    311.3000     36.3100   -999.2500
  1101.2000   2394.0000     29.3830    311.7000     36.3970   -999.2500
  1101.4000   2352.0000     31.9750    318.1000     37.7750   -999.2500
  1101.6000   2272.0000     36.9140    334.4000     41.2860   -999.2500
  1101.8000   2329.9000     33.3400    359.8000     46.7570   -999.2500
  1102.0000   2460.0000     25.3090    320.2000     38.2270   -999.2500
  1102.2000   2504.0000     22.5930    271.8000     27.8030   -999.2500
  1102.4000   2596.0000     16.9140    264.9000     26.3170   -999.2500
  1102.6000   2510.0000     22.2220    273.5000     28.1690   -999.2500
  1102.8000   2480.0000     24.0740    285.2000     30.6890   -999.2500
  1103.0000   2476.0000     24.3210    294.4000     32.6700   -999.2500
  1103.2000   2452.0000     25.8020    294.3000     32.6490   -999.2500
  1103.4000   2440.0000     26.5430    287.7000     31.2270   -999.2500
  1103.6000   2438.0000     26.6670    293.9000     32.5630   -999.2500
  1103.8000   2478.0000     24.1980    281.5000     29.8920   -999.2500
  1104.0000   2480.0000     24.0740    267.6000     26.8980   -999.2500
  1104.2000   2422.0000     27.6540    271.3000     27.6950   -999.2500
  1104.4000   2352.0000     31.9750    305.2000     34.9970   -999.2500
  1104.6000   2406.0000     28.6420    308.2000     35.6430   -999.2500
  1104.8000   2422.0000     27.6540    301.8000     34.2640   -999.2500
  1105.0000   2470.0000     24.6910    297.4000     33.3170   -999.2500
  1105.2000   2454.0000     25.6790    292.2000     32.1970   -999.2500
  1105.4000   2466.0000     24.9380    299.5000     33.7690   -999.2500
  1105.6000   2434.0000     26.9140    309.2000     35.8580   -999.2500
  1105.8000   2364.0000     31.2350    291.2000     31.9810   -999.2500
  1106.0000   2348.0000     32.2220    270.4000     27.5010   -999.2500
  1106.2000   2316.0000     34.1980    270.3000     27.4800   -999.2500
  1106.4000   2274.0000     36.7900    275.8000     28.6640   -999.2500
  1106.6000   2266.0000     37.2840    273.1000     28.0830   -999.2500
  1106.8000   2266.0000     37.2840    268.5000     27.0920   -999.2500
  1107.0000   2285.9000     36.0560    265.9000     26.5320   -999.2500
  1107.2000   2298.0000     35.3090    264.4000     26.2090   -999.2500
  1107.4000   2320.0000     33.9510    262.0000     25.6920   -999.2500
  1107.6000   2470.0000     24.6910    258.6000     24.9600   -999.2500
  1107.8000   2544.0000     20.1230    242.9000     21.5780   -999.2500
  1108.0000   2523.9000     21.3640    263.4000     25.9930   -999.2500
  1108.2000   2438.0000     26.6670    279.9000     29.5470   -999.2500
  1108.4000   2390.0000     29.6300    283.4000     30.3010   -999.2500
  1108.6000   2420.0000     27.7780    280.2000     29.6120   -999.2500
  1108.8000   2428.0000     27.2840    276.9000     28.9010   -999.2500
  1109.0000   2436.0000     26.7900    274.4000     28.3630   -999.2500
  1109.2000   2444.0000     26.2960    273.6000     28.1900   -999.2500
  1109.4000   2438.0000     26.6670    271.2000     27.6740   -999.2500
  1109.6000   2408.0000     28.5190    268.6000     27.1130   -999.2500
  1109.8000   2397.9000     29.1420    266.6000     26.6830   -999.2500
  1110.0000   2420.0000     27.7780    263.8000     26.0800   -999.2500
  1110.2000   2470.0000     24.6910    259.0000     25.0460   -999.2500
  1110.4000   2464.0000     25.0620    259.8000     25.2180   -999.2500
  1110.6000   2460.0000     25.3090    263.6000     26.0370   -999.2500
  1110.8000   2470.0000     24.6910    263.7000     26.0580   -999.2500
  1111.0000   2464.0000     25.0620    264.3000     26.1870   -999.2500
  1111.2000   2454.0000     25.6790    266.8000     26.7260   -999.2500
  1111.4000   2468.0000     24.8150    270.2000     27.4580   -999.2500
  1111.6000   2484.0000     23.8270    272.5000     27.9530   -999.2500
  1111.8000   2466.0000     24.9380    272.3000     27.9100   -999.2500
  1112.0000   2472.0000     24.5680    272.7000     27.9970   -999.2500
  1112.2000   2488.0000     23.5800    275.6000     28.6210   -999.2500
  1112.4000   2496.0000     23.0860    274.8000     28.4490   -999.2500
  1112.6000   2498.0000     22.9630    271.9000     27.8240   -999.2500
  1112.8000   2466.0000     24.9380    268.5000     27.0920   -999.2500
  1113.0000   2458.0000     25.4320    265.8000     26.5100   -999.2500
  1113.2000   2468.0000     24.8150    265.8000     26.5100   -999.2500
  1113.4000   2476.0000     24.3210    266.2000     26.5970   -999.2500
  1113.6000   2496.0000     23.0860    267.2000     26.8120   -999.2500
  1113.8000   2501.9000     22.7220    268.6000     27.1130   -999.2500
  1114.0000   2500.0000     22.8400    269.7000     27.3500   -999.2500
  1114.2000   2518.0000     21.7280    268.4000     27.0700   -999.2500
  1114.4000   2512.0000     22.0990    265.7000     26.4890   -999.2500
  1114.6000   2532.0000     20.8640    265.2000     26.3810   -999.2500
  1114.8000   2552.0000     19.6300    261.0000     25.4770   -999.2500
  1115.0000   2488.0000     23.5800    258.7000     24.9810   -999.2500
  1115.2000   2392.0000     29.5060    272.7000     27.9970   -999.2500
  1115.4000   2244.0000     38.6420    302.5000     34.4150   -999.2500
  1115.6000   2212.0000     40.6170    312.3000     36.5260   -999.2500
  1115.8000   2208.0000     40.8640    310.6000     36.1600   -999.2500
  1116.0000   2224.0000     39.8770    308.1000     35.6210   -999.2500
  1116.2000   2232.0000     39.3830    306.8000     35.3410   -999.2500
  1116.4000   2252.0000     38.1480    308.2000     35.6430   -999.2500
  1116.6000   2240.0000     38.8890    303.4000     34.6090   -999.2500
  1116.8000   2236.0000     39.1360    298.2000     33.4890   -999.2500
  1117.0000   2246.0000     38.5190    294.8000     32.7570   -999.2500
  1117.2000   2258.0000     37.7780    294.2000     32.6270   -999.2500
  1117.4000   2252.0000     38.1480    295.3000     32.8640   -999.2500
  1117.6000   2256.0000     37.9010    295.4000     32.8860   -999.2500
  1117.8000   2246.0000     38.5190    294.7000     32.7350   -999.2500
  1118.0000   2234.0000     39.2590    293.0000     32.3690   -999.2500
  1118.2000   2248.0000     38.3950    293.0000     32.3690   -999.2500
  1118.4000   2260.0000     37.6540    293.3000     32.4340   -999.2500
  1118.6000   2246.0000     38.5190    293.7000     32.5200   -999.2500
  1118.8000   2230.0000     39.5060    294.7000     32.7350   -999.2500
  1119.0000   2230.0000     39.5060    295.4000     32.8860   -999.2500
  1119.2000   2258.0000     37.7780    293.2000     32.4120   -999.2500
  1119.4000   2270.0000     37.0370    289.3000     31.5720   -999.2500
  1119.6000   2264.0000     37.4070    290.7000     31.8740   -999.2500
  1119.8000   2296.0000     35.4320    293.1000     32.3900   -999.2500
  1120.0000   2320.0000     33.9510    287.8000     31.2490   -999.2500
  1120.2000   2329.9000     33.3400    284.7000     30.5810   -999.2500
