~Version Information
 VERS. 2.0                             : CWLS Log ASCII Standard - Version 2.0
 WRAP. NO                              : One line per depth step
 PROG.                                 : SeisWare LAS Export
#
~Well Information
#MNEM.UNIT     DATA                    : DESCRIPTION
#----.----     ---------               : -----------------
 STRT.M        1098.0000               : Start Depth
 STOP.M        2633.4000               : End Depth
 STEP.M           0.2000               : Depth Increment
 NULL.          -999.250               : Null Value
 WELL.         DUCE TABLELAND V1U 8A- 22-2-9        : Common Well Name
 UWI .         111082200209W200        : Unique Well ID
 FLD .         TABLELAND               : Field Name
 PROV.         Saskatchewan            : Province / State
#
~Parameter Information
#MNEM.UNIT     VALUE                   : DESCRIPTION
#----.----     ---------               : -----------------
 EREF.M         570.2000               : Elevation of Depth Reference
 DREF.         KB                      : Depth Reference
 EGL .M         563.3000               : Ground Level Elevation
 EKB .M         570.2000               : Kelly Bushing Elevation
#
~Other Information
# SeisWare LAS Export
#
~Curve Information
#MNEM.UNIT        API CODE             : CURVE DESCRIPTION
#----.----        ---------            : -----------------
 DEPT.M                                : Depth
 DEN .K/M3                             : HRDD STANDARD RESOLUTION FORMATION DENSITY
 DENPOR.%                                : 9       COMPRESSIONAL TO SHEAR VELOCITY RATIO
 DT  .US/M                             : 3       DELTA-T COMPRESSIONAL, RECEIVER ARRAY - MONOPOLE P&S
 SONPOR.%                                : 8       POISSON SHEAR/COMPRESSIONAL RATIO
 POR .%                                : Porosity
#
~A     DEPT         DEN      DENPOR          DT      SONPOR         POR
# ...
  1590.8000   2718.0000      9.3830    178.2000      7.6430   -999.2500
  1591.0000   2694.0000     10.8640    180.0000      8.0300   -999.2500
  1591.2000   2692.0000     10.9880    177.9000      7.5780   -999.2500
  1591.4000   2710.0000      9.8770    173.5000      6.6300   -999.2500
  1591.6000   2772.0000      6.0490    166.9000      5.2090   -999.2500
  1591.8000   2940.0000     -4.3210    166.6000      5.1440   -999.2500
  1592.0000   2948.0000     -4.8150    167.9000      5.4240   -999.2500
  1592.2000   2896.0000     -1.6050    169.1000      5.6830   -999.2500
  1592.4000   2922.0000     -3.2100    169.4000      5.7470   -999.2500
  1592.6000   2972.0000     -6.2960    169.2000      5.7040   -999.2500
  1592.8000   2982.0000     -6.9140    168.2000      5.4890   -999.2500
  1593.0000   2968.0000     -6.0490    167.6000      5.3600   -999.2500
  1593.2000   2966.0000     -5.9260    167.7000      5.3810   -999.2500
  1593.4000   2982.0000     -6.9140    167.9000      5.4240   -999.2500
  1593.6000   2988.0000     -7.2840    168.0000      5.4460   -999.2500
  1593.8000   2976.0000     -6.5430    168.9000      5.6400   -999.2500
  1594.0000   2964.0000     -5.8020    172.2000      6.3500   -999.2500
  1594.2000   2944.0000     -4.5680    178.3000      7.6640   -999.2500
  1594.4000   2810.0000      3.7040    196.0000     11.4760   -999.2500
  1594.6000   2720.0000      9.2590    202.6000     12.8980   -999.2500
  1594.8000   2670.0000     12.3460    210.1000     14.5130   -999.2500
  1595.0000   2626.0000     15.0620    214.5000     15.4610   -999.2500
  1595.2000   2622.0000     15.3090    217.7000     16.1500   -999.2500
  1595.4000   2630.0000     14.8150    219.6000     16.5600   -999.2500
  1595.6000   2668.0000     12.4690    216.8000     15.9570   -999.2500
  1595.8000   2684.0000     11.4810    209.9000     14.4700   -999.2500
  1596.0000   2710.0000      9.8770    206.7000     13.7810   -999.2500
  1596.2000   2790.0000      4.9380    192.4000     10.7010   -999.2500
  1596.4000   2840.0000      1.8520    177.9000      7.5780   -999.2500
  1596.6000   2892.0000     -1.3580    176.0000      7.1690   -999.2500
  1596.8000   2934.0000     -3.9510    180.5000      8.1380   -999.2500
  1597.0000   2912.0000     -2.5930    182.8000      8.6330   -999.2500
  1597.2000   2890.0000     -1.2350    179.9000      8.0090   -999.2500
  1597.4000   2898.0000     -1.7280    181.5000      8.3530   -999.2500
  1597.6000   2900.0000     -1.8520    192.2000     10.6580   -999.2500
  1597.8000   2850.0000      1.2350    191.2000     10.4430   -999.2500
  1598.0000   2820.0000      3.0860    181.2000      8.2890   -999.2500
  1598.2000   2834.0000      2.2220    175.3000      7.0180   -999.2500
  1598.4000   2856.0000      0.8640    172.8000      6.4800   -999.2500
  1598.6000   2862.0000      0.4940    172.2000      6.3500   -999.2500
  1598.8000   2876.0000     -0.3700    173.0000      6.5230   -999.2500
  1599.0000   2910.0000     -2.4690    172.3000      6.3720   -999.2500
  1599.2000   2934.0000     -3.9510    171.9000      6.2860   -999.2500
  1599.4000   2908.0000     -2.3460    176.7000      7.3200   -999.2500
  1599.6000   2884.0000     -0.8640    182.7000      8.6120   -999.2500
  1599.8000   2838.0000      1.9750    186.2000      9.3660   -999.2500
  1600.0000   2684.0000     11.4810    185.2000      9.1500   -999.2500
  1600.2000   2618.0000     15.5560    186.0000      9.3230   -999.2500
  1600.4000   2584.0000     17.6540    187.5000      9.6460   -999.2500
  1600.6000   2582.0000     17.7780    189.9000     10.1630   -999.2500
  1600.8000   2593.9000     17.0430    192.9000     10.8090   -999.2500
  1601.0000   2608.0000     16.1730    190.0000     10.1840   -999.2500
  1601.2000   2646.0000     13.8270    188.8000      9.9260   -999.2500
  1601.4000   2656.0000     13.2100    192.1000     10.6360   -999.2500
  1601.6000   2615.9000     15.6850    195.2000     11.3040   -999.2500
  1601.8000   2574.0000     18.2720    192.9000     10.8090   -999.2500
  1602.0000   2566.0000     18.7650    186.1000      9.3440   -999.2500
  1602.2000   2584.0000     17.6540    180.2000      8.0730   -999.2500
  1602.4000   2608.0000     16.1730    176.2000      7.2120   -999.2500
  1602.6000   2620.0000     15.4320    177.2000      7.4270   -999.2500
  1602.8000   2618.0000     15.5560    179.5000      7.9230   -999.2500
  1603.0000   2618.0000     15.5560    184.1000      8.9130   -999.2500
  1603.2000   2615.9000     15.6850    199.9000     12.3170   -999.2500
  1603.4000   2604.0000     16.4200    208.8000     14.2330   -999.2500
  1603.6000   2584.0000     17.6540    196.1000     11.4980   -999.2500
  1603.8000   2584.0000     17.6540    195.3000     11.3260   -999.2500
  1604.0000   2512.0000     22.0990    202.8000     12.9410   -999.2500
  1604.2000   2424.0000     27.5310    200.1000     12.3600   -999.2500
  1604.4000   2346.0000     32.3460    200.2000     12.3810   -999.2500
  1604.6000   2375.9000     30.5000    203.3000     13.0490   -999.2500
  1604.8000   2454.0000     25.6790    197.8000     11.8640   -999.2500
  1605.0000   2450.0000     25.9260    192.4000     10.7010   -999.2500
  1605.2000   2362.0000     31.3580    195.1000     11.2830   -999.2500
  1605.4000   2296.0000     35.4320    205.8000     13.5870   -999.2500
  1605.6000   2282.0000     36.2960    210.1000     14.5130   -999.2500
  1605.8000   2428.0000     27.2840    208.2000     14.1040   -999.2500
  1606.0000   2462.0000     25.1850    202.5000     12.8770   -999.2500
  1606.2000   2474.0000     24.4440    198.8000     12.0800   -999.2500
  1606.4000   2514.0000     21.9750    194.8000     11.2180   -999.2500
  1606.6000   2522.0000     21.4810    193.4000     10.9160   -999.2500
  1606.8000   2530.0000     20.9880    196.3000     11.5410   -999.2500
  1607.0000   2532.0000     20.8640    200.8000     12.5100   -999.2500
  1607.2000   2522.0000     21.4810    202.9000     12.9630   -999.2500
  1607.4000   2532.0000     20.8640    198.8000     12.0800   -999.2500
  1607.6000   2548.0000     19.8770    193.1000     10.8520   -999.2500
  1607.8000   2636.0000     14.4440    202.3000     12.8330   -999.2500
  1608.0000   2652.0000     13.4570    196.3000     11.5410   -999.2500
  1608.2000   2632.0000     14.6910    187.5000      9.6460   -999.2500
  1608.4000   2622.0000     15.3090    190.7000     10.3350   -999.2500
  1608.6000   2614.0000     15.8020    228.7000     18.5200   -999.2500
  1608.8000   2580.0000     17.9010    230.9000     18.9930   -999.2500
  1609.0000   2580.0000     17.9010    219.2000     16.4730   -999.2500
  1609.2000   2644.0000     13.9510    183.0000      8.6760   -999.2500
  1609.4000   2718.0000      9.3830    194.6000     11.1750   -999.2500
  1609.6000   2666.0000     12.5930    232.1000     19.2520   -999.2500
  1609.8000   2578.0000     18.0250    249.9000     23.0860   -999.2500
  1610.0000   2520.0000     21.6050    221.3000     16.9260   -999.2500
  1610.2000   2514.0000     21.9750    193.1000     10.8520   -999.2500
  1610.4000   2718.0000      9.3830    173.8000      6.6950   -999.2500
  1610.6000   2842.0000      1.7280    170.8000      6.0490   -999.2500
  1610.8000   2898.0000     -1.7280    170.0000      5.8760   -999.2500
  1611.0000   2914.0000     -2.7160    179.1000      7.8360   -999.2500
  1611.2000   2896.0000     -1.6050    201.4000     12.6400   -999.2500
  1611.4000   2844.0000      1.6050    202.9000     12.9630   -999.2500
  1611.6000   2712.0000      9.7530    203.2000     13.0270   -999.2500
  1611.8000   2676.0000     11.9750    207.1000     13.8670   -999.2500
  1612.0000   2648.0000     13.7040    213.0000     15.1380   -999.2500
  1612.2000   2630.0000     14.8150    215.3000     15.6330   -999.2500
  1612.4000   2624.0000     15.1850    212.8000     15.0950   -999.2500
  1612.6000   2642.0000     14.0740    202.0000     12.7690   -999.2500
  1612.8000   2770.0000      6.1730    184.4000      8.9780   -999.2500
  1613.0000   2852.0000      1.1110    172.6000      6.4360   -999.2500
