~Version Information
 VERS. 2.0                             : CWLS Log ASCII Standard - Version 2.0
 WRAP. NO                              : One line per depth step
 PROG.                                 : SeisWare LAS Export
#
~Well Information
#MNEM.UNIT     DATA                    : DESCRIPTION
#----.----     ---------               : -----------------
 STRT.M        1098.0000               : Start Depth
 STOP.M        2633.4000               : End Depth
 STEP.M           0.2000               : Depth Increment
 NULL.          -999.250               : Null Value
 WELL.         DUCE TABLELAND V1U 8A- 22-2-9        : Common Well Name
 UWI .         111082200209W200        : Unique Well ID
 FLD .         TABLELAND               : Field Name
 PROV.         Saskatchewan            : Province / State
#
~Parameter Information
#MNEM.UNIT     VALUE                   : DESCRIPTION
#----.----     ---------               : -----------------
 EREF.M         570.2000               : Elevation of Depth Reference
 DREF.         KB                      : Depth Reference
 EGL .M         563.3000               : Ground Level Elevation
 EKB .M         570.2000               : Kelly Bushing Elevation
#
~Other Information
# SeisWare LAS Export
#
~Curve Information
#MNEM.UNIT        API CODE             : CURVE DESCRIPTION
#----.----        ---------            : -----------------
 DEPT.M                                : Depth
 DEN .K/M3                             : HRDD STANDARD RESOLUTION FORMATION DENSITY
 DENPOR.%                                : 9       COMPRESSIONAL TO SHEAR VELOCITY RATIO
 DT  .US/M                             : 3       DELTA-T COMPRESSIONAL, RECEIVER ARRAY - MONOPOLE P&S
 SONPOR.%                                : 8       POISSON SHEAR/COMPRESSIONAL RATIO
 POR .%                                : Porosity
#
~A     DEPT         DEN      DENPOR          DT      SONPOR         POR
# ...
  1501.2000   2476.0000     24.3210    243.3000     21.6640   -999.2500
  1501.4000   2500.0000     22.8400    242.9000     21.5780   -999.2500
  1501.6000   2496.0000     23.0860    246.1000     22.2670   -999.2500
  1501.8000   2508.0000     22.3460    245.3000     22.0950   -999.2500
  1502.0000   2522.0000     21.4810    243.1000     21.6210   -999.2500
  1502.2000   2516.0000     21.8520    239.8000     20.9100   -999.2500
  1502.4000   2518.0000     21.7280    236.1000     20.1130   -999.2500
  1502.6000   2518.0000     21.7280    233.6000     19.5750   -999.2500
  1502.8000   2523.9000     21.3640    231.8000     19.1870   -999.2500
  1503.0000   2545.9000     20.0060    229.9000     18.7780   -999.2500
  1503.2000   2568.0000     18.6420    227.1000     18.1750   -999.2500
  1503.4000   2571.9000     18.4010    224.9000     17.7010   -999.2500
  1503.6000   2550.0000     19.7530    230.5000     18.9070   -999.2500
  1503.8000   2545.9000     20.0060    239.9000     20.9320   -999.2500
  1504.0000   2500.0000     22.8400    249.8000     23.0640   -999.2500
  1504.2000   2466.0000     24.9380    254.1000     23.9900   -999.2500
  1504.4000   2438.0000     26.6670    249.8000     23.0640   -999.2500
  1504.6000   2466.0000     24.9380    246.5000     22.3530   -999.2500
  1504.8000   2501.9000     22.7220    245.9000     22.2240   -999.2500
  1505.0000   2523.9000     21.3640    247.9000     22.6550   -999.2500
  1505.2000   2545.9000     20.0060    242.6000     21.5130   -999.2500
  1505.4000   2532.0000     20.8640    233.4000     19.5320   -999.2500
  1505.6000   2506.0000     22.4690    232.4000     19.3170   -999.2500
  1505.8000   2486.0000     23.7040    247.9000     22.6550   -999.2500
  1506.0000   2468.0000     24.8150    252.1000     23.5600   -999.2500
  1506.2000   2470.0000     24.6910    249.5000     23.0000   -999.2500
  1506.4000   2476.0000     24.3210    245.9000     22.2240   -999.2500
  1506.6000   2476.0000     24.3210    247.9000     22.6550   -999.2500
  1506.8000   2468.0000     24.8150    250.8000     23.2800   -999.2500
  1507.0000   2468.0000     24.8150    248.5000     22.7840   -999.2500
  1507.2000   2480.0000     24.0740    244.5000     21.9230   -999.2500
  1507.4000   2476.0000     24.3210    245.9000     22.2240   -999.2500
  1507.6000   2476.0000     24.3210    250.1000     23.1290   -999.2500
  1507.8000   2500.0000     22.8400    248.3000     22.7410   -999.2500
  1508.0000   2500.0000     22.8400    246.8000     22.4180   -999.2500
  1508.2000   2490.0000     23.4570    247.9000     22.6550   -999.2500
  1508.4000   2498.0000     22.9630    247.1000     22.4830   -999.2500
  1508.6000   2540.0000     20.3700    237.1000     20.3290   -999.2500
  1508.8000   2548.0000     19.8770    236.1000     20.1130   -999.2500
  1509.0000   2538.0000     20.4940    246.9000     22.4400   -999.2500
  1509.2000   2520.0000     21.6050    255.7000     24.3350   -999.2500
  1509.4000   2510.0000     22.2220    253.9000     23.9470   -999.2500
  1509.6000   2518.0000     21.7280    247.3000     22.5260   -999.2500
  1509.8000   2542.0000     20.2470    244.6000     21.9440   -999.2500
  1510.0000   2538.0000     20.4940    242.9000     21.5780   -999.2500
  1510.2000   2545.9000     20.0060    238.6000     20.6520   -999.2500
  1510.4000   2534.0000     20.7410    239.3000     20.8030   -999.2500
  1510.6000   2526.0000     21.2350    235.0000     19.8770   -999.2500
  1510.8000   2522.0000     21.4810    227.8000     18.3260   -999.2500
  1511.0000   2532.0000     20.8640    233.2000     19.4890   -999.2500
  1511.2000   2554.0000     19.5060    241.4000     21.2550   -999.2500
  1511.4000   2562.0000     19.0120    240.9000     21.1470   -999.2500
  1511.6000   2566.0000     18.7650    235.5000     19.9840   -999.2500
  1511.8000   2534.0000     20.7410    235.4000     19.9630   -999.2500
  1512.0000   2523.9000     21.3640    242.8000     21.5570   -999.2500
  1512.2000   2516.0000     21.8520    247.3000     22.5260   -999.2500
  1512.4000   2514.0000     21.9750    249.4000     22.9780   -999.2500
  1512.6000   2526.0000     21.2350    250.3000     23.1720   -999.2500
  1512.8000   2534.0000     20.7410    250.3000     23.1720   -999.2500
  1513.0000   2530.0000     20.9880    250.4000     23.1930   -999.2500
  1513.2000   2526.0000     21.2350    249.2000     22.9350   -999.2500
  1513.4000   2512.0000     22.0990    246.3000     22.3100   -999.2500
  1513.6000   2522.0000     21.4810    245.4000     22.1170   -999.2500
  1513.8000   2526.0000     21.2350    248.7000     22.8270   -999.2500
  1514.0000   2516.0000     21.8520    250.1000     23.1290   -999.2500
  1514.2000   2532.0000     20.8640    245.4000     22.1170   -999.2500
  1514.4000   2548.0000     19.8770    242.3000     21.4490   -999.2500
  1514.6000   2560.0000     19.1360    237.8000     20.4800   -999.2500
  1514.8000   2545.9000     20.0060    228.0000     18.3690   -999.2500
  1515.0000   2514.0000     21.9750    221.5000     16.9690   -999.2500
  1515.2000   2516.0000     21.8520    219.8000     16.6030   -999.2500
  1515.4000   2522.0000     21.4810    224.7000     17.6580   -999.2500
  1515.6000   2514.0000     21.9750    235.0000     19.8770   -999.2500
  1515.8000   2523.9000     21.3640    247.5000     22.5690   -999.2500
  1516.0000   2528.0000     21.1110    245.8000     22.2030   -999.2500
  1516.2000   2526.0000     21.2350    241.5000     21.2770   -999.2500
  1516.4000   2536.0000     20.6170    240.9000     21.1470   -999.2500
  1516.6000   2542.0000     20.2470    240.6000     21.0830   -999.2500
  1516.8000   2554.0000     19.5060    238.6000     20.6520   -999.2500
  1517.0000   2564.0000     18.8890    235.4000     19.9630   -999.2500
  1517.2000   2576.0000     18.1480    231.6000     19.1440   -999.2500
  1517.4000   2610.0000     16.0490    234.5000     19.7690   -999.2500
  1517.6000   2602.0000     16.5430    235.8000     20.0490   -999.2500
  1517.8000   2584.0000     17.6540    234.2000     19.7040   -999.2500
  1518.0000   2578.0000     18.0250    236.2000     20.1350   -999.2500
  1518.2000   2550.0000     19.7530    238.9000     20.7170   -999.2500
  1518.4000   2534.0000     20.7410    241.9000     21.3630   -999.2500
  1518.6000   2538.0000     20.4940    240.8000     21.1260   -999.2500
  1518.8000   2556.0000     19.3830    243.4000     21.6860   -999.2500
  1519.0000   2542.0000     20.2470    247.3000     22.5260   -999.2500
  1519.2000   2538.0000     20.4940    239.7000     20.8890   -999.2500
  1519.4000   2548.0000     19.8770    237.8000     20.4800   -999.2500
  1519.6000   2540.0000     20.3700    243.0000     21.6000   -999.2500
  1519.8000   2545.9000     20.0060    248.0000     22.6770   -999.2500
  1520.0000   2542.0000     20.2470    245.6000     22.1600   -999.2500
  1520.2000   2528.0000     21.1110    241.5000     21.2770   -999.2500
  1520.4000   2520.0000     21.6050    236.5000     20.2000   -999.2500
  1520.6000   2514.0000     21.9750    241.4000     21.2550   -999.2500
  1520.8000   2512.0000     22.0990    250.1000     23.1290   -999.2500
  1521.0000   2528.0000     21.1110    251.7000     23.4730   -999.2500
  1521.2000   2528.0000     21.1110    248.5000     22.7840   -999.2500
  1521.4000   2564.0000     18.8890    242.9000     21.5780   -999.2500
  1521.6000   2584.0000     17.6540    225.5000     17.8300   -999.2500
  1521.8000   2593.9000     17.0430    218.7000     16.3660   -999.2500
  1522.0000   2606.0000     16.2960    220.0000     16.6460   -999.2500
  1522.2000   2586.0000     17.5310    230.0000     18.8000   -999.2500
  1522.4000   2554.0000     19.5060    239.5000     20.8460   -999.2500
  1522.6000   2526.0000     21.2350    246.6000     22.3750   -999.2500
  1522.8000   2516.0000     21.8520    243.9000     21.7930   -999.2500
  1523.0000   2518.0000     21.7280    244.1000     21.8370   -999.2500
  1523.2000   2516.0000     21.8520    243.8000     21.7720   -999.2500
  1523.4000   2534.0000     20.7410    244.6000     21.9440   -999.2500
