~Version Information
 VERS. 2.0                             : CWLS Log ASCII Standard - Version 2.0
 WRAP. NO                              : One line per depth step
 PROG.                                 : SeisWare LAS Export
#
~Well Information
#MNEM.UNIT     DATA                    : DESCRIPTION
#----.----     ---------               : -----------------
 STRT.M        1098.0000               : Start Depth
 STOP.M        2633.4000               : End Depth
 STEP.M           0.2000               : Depth Increment
 NULL.          -999.250               : Null Value
 WELL.         DUCE TABLELAND V1U 8A- 22-2-9        : Common Well Name
 UWI .         111082200209W200        : Unique Well ID
 FLD .         TABLELAND               : Field Name
 PROV.         Saskatchewan            : Province / State
#
~Parameter Information
#MNEM.UNIT     VALUE                   : DESCRIPTION
#----.----     ---------               : -----------------
 EREF.M         570.2000               : Elevation of Depth Reference
 DREF.         KB                      : Depth Reference
 EGL .M         563.3000               : Ground Level Elevation
 EKB .M         570.2000               : Kelly Bushing Elevation
#
~Other Information
# SeisWare LAS Export
#
~Curve Information
#MNEM.UNIT        API CODE             : CURVE DESCRIPTION
#----.----        ---------            : -----------------
 DEPT.M                                : Depth
 DEN .K/M3                             : HRDD STANDARD RESOLUTION FORMATION DENSITY
 DENPOR.%                                : 9       COMPRESSIONAL TO SHEAR VELOCITY RATIO
 DT  .US/M                             : 3       DELTA-T COMPRESSIONAL, RECEIVER ARRAY - MONOPOLE P&S
 SONPOR.%                                : 8       POISSON SHEAR/COMPRESSIONAL RATIO
 POR .%                                : Porosity
#
~A     DEPT         DEN      DENPOR          DT      SONPOR         POR
# ...
  2598.8000   2568.0000     18.6420    211.0000     14.7070   -999.2500
  2599.0000   2624.0000     15.1850    206.0000     13.6300   -999.2500
  2599.2000   2652.0000     13.4570    195.1000     11.2830   -999.2500
  2599.4000   2680.0000     11.7280    186.9000      9.5160      6.1365
  2599.6000   2714.0000      9.6300    179.7000      7.9660     11.0616
  2599.8000   2678.0000     11.8520    184.0000      8.8920     11.8991
  2600.0000   2618.0000     15.5560    195.4000     11.3470     12.5736
  2600.2000   2568.0000     18.6420    201.8000     12.7260      6.5485
  2600.4000   2568.0000     18.6420    206.5000     13.7380     10.4166
  2600.6000   2552.0000     19.6300    211.5000     14.8150      4.7323
  2600.8000   2548.0000     19.8770    215.1000     15.5900      7.4237
  2601.0000   2554.0000     19.5060    213.5000     15.2460     14.5488
  2601.2000   2552.0000     19.6300    213.5000     15.2460     14.0499
  2601.4000   2552.0000     19.6300    213.9000     15.3320     10.7758
  2601.6000   2564.0000     18.8890    213.1000     15.1600     10.1234
  2601.8000   2574.0000     18.2720    211.1000     14.7290     11.2000
  2602.0000   2580.0000     17.9010    209.3000     14.3410      6.4232
  2602.2000   2593.9000     17.0430    207.6000     13.9750      8.2405
  2602.4000   2593.9000     17.0430    207.6000     13.9750     12.8123
  2602.6000   2588.0000     17.4070    209.7000     14.4270      7.4572
  2602.8000   2544.0000     20.1230    213.9000     15.3320      6.2494
  2603.0000   2536.0000     20.6170    219.2000     16.4730     11.3440
  2603.2000   2523.9000     21.3640    220.1000     16.6670      7.5625
  2603.4000   2510.0000     22.2220    221.0000     16.8610      8.7499
  2603.6000   2522.0000     21.4810    217.8000     16.1720     13.0608
  2603.8000   2538.0000     20.4940    212.6000     15.0520      9.8139
  2604.0000   2571.9000     18.4010    208.6000     14.1900      9.1558
  2604.2000   2600.0000     16.6670    205.4000     13.5010     11.8401
  2604.4000   2588.0000     17.4070    203.1000     13.0060     10.4383
  2604.6000   2580.0000     17.9010    203.7000     13.1350      8.2278
  2604.8000   2598.0000     16.7900    206.0000     13.6300      8.1707
  2605.0000   2596.0000     16.9140    207.6000     13.9750      9.6439
  2605.2000   2588.0000     17.4070    206.7000     13.7810      9.1030
  2605.4000   2588.0000     17.4070    201.8000     12.7260      9.8931
  2605.6000   2592.0000     17.1600    199.6000     12.2520      7.6795
  2605.8000   2580.0000     17.9010    197.0000     11.6920      7.3588
  2606.0000   2600.0000     16.6670    188.8000      9.9260     13.9110
  2606.2000   2608.0000     16.1730    188.3000      9.8180     18.2958
  2606.4000   2600.0000     16.6670    194.1000     11.0670     17.3000
  2606.6000   2582.0000     17.7780    198.7000     12.0580     15.1814
  2606.8000   2571.9000     18.4010    198.4000     11.9930     15.9370
  2607.0000   2580.0000     17.9010    196.7000     11.6270     10.9408
  2607.2000   2574.0000     18.2720    198.3000     11.9720     13.9191
  2607.4000   2582.0000     17.7780    195.2000     11.3040     20.9363
  2607.6000   2570.0000     18.5190    191.2000     10.4430     17.5046
  2607.8000   2562.0000     19.0120    186.4000      9.4090     14.4578
  2608.0000   2554.0000     19.5060    181.7000      8.3960     13.8435
  2608.2000   2552.0000     19.6300    181.3000      8.3100     12.7017
  2608.4000   -999.2500   -999.2500   -999.2500   -999.2500     16.2373
  2608.6000   -999.2500   -999.2500   -999.2500   -999.2500     20.0593
  2608.8000   -999.2500   -999.2500   -999.2500   -999.2500     19.7067
  2609.0000   -999.2500   -999.2500   -999.2500   -999.2500     16.0166
  2609.2000   -999.2500   -999.2500   -999.2500   -999.2500     12.7318
  2609.4000   -999.2500   -999.2500   -999.2500   -999.2500     11.7655
  2609.6000   -999.2500   -999.2500   -999.2500   -999.2500      9.3774
  2609.8000   -999.2500   -999.2500   -999.2500   -999.2500     12.8866
  2610.0000   -999.2500   -999.2500   -999.2500   -999.2500     15.2485
  2610.2000   -999.2500   -999.2500   -999.2500   -999.2500     12.2158
  2610.4000   -999.2500   -999.2500   -999.2500   -999.2500     10.5076
  2610.6000   -999.2500   -999.2500   -999.2500   -999.2500     13.8232
  2610.8000   -999.2500   -999.2500   -999.2500   -999.2500     15.8284
  2611.0000   -999.2500   -999.2500   -999.2500   -999.2500     13.5000
  2611.2000   -999.2500   -999.2500   -999.2500   -999.2500     14.1062
  2611.4000   -999.2500   -999.2500   -999.2500   -999.2500     12.5066
  2611.6000   -999.2500   -999.2500   -999.2500   -999.2500     17.1557
  2611.8000   -999.2500   -999.2500   -999.2500   -999.2500     17.3347
  2612.0000   -999.2500   -999.2500   -999.2500   -999.2500     14.9512
  2612.2000   -999.2500   -999.2500   -999.2500   -999.2500     17.7007
  2612.4000   -999.2500   -999.2500   -999.2500   -999.2500     15.0257
  2612.6000   -999.2500   -999.2500   -999.2500   -999.2500     12.3549
  2612.8000   -999.2500   -999.2500   -999.2500   -999.2500     11.9981
  2613.0000   -999.2500   -999.2500   -999.2500   -999.2500     11.5743
  2613.2000   -999.2500   -999.2500   -999.2500   -999.2500     12.0122
  2613.4000   -999.2500   -999.2500   -999.2500   -999.2500     14.0164
  2613.6000   -999.2500   -999.2500   -999.2500   -999.2500     14.4883
  2613.8000   -999.2500   -999.2500   -999.2500   -999.2500     13.4861
  2614.0000   -999.2500   -999.2500   -999.2500   -999.2500     13.8190
  2614.2000   -999.2500   -999.2500   -999.2500   -999.2500     14.3972
  2614.4000   -999.2500   -999.2500   -999.2500   -999.2500     16.0071
  2614.6000   -999.2500   -999.2500   -999.2500   -999.2500     17.8113
  2614.8000   -999.2500   -999.2500   -999.2500   -999.2500     20.7617
  2615.0000   -999.2500   -999.2500   -999.2500   -999.2500     18.1971
  2615.2000   -999.2500   -999.2500   -999.2500   -999.2500     14.1146
  2615.4000   -999.2500   -999.2500   -999.2500   -999.2500     15.4575
  2615.6000   -999.2500   -999.2500   -999.2500   -999.2500     13.4000
  2615.8000   -999.2500   -999.2500   -999.2500   -999.2500     12.6955
  2616.0000   -999.2500   -999.2500   -999.2500   -999.2500     10.9247
  2616.2000   -999.2500   -999.2500   -999.2500   -999.2500      9.7260
  2616.4000   -999.2500   -999.2500   -999.2500   -999.2500     11.8798
  2616.6000   -999.2500   -999.2500   -999.2500   -999.2500     11.7661
  2616.8000   -999.2500   -999.2500   -999.2500   -999.2500      8.4899
  2617.0000   -999.2500   -999.2500   -999.2500   -999.2500      8.7449
  2617.2000   -999.2500   -999.2500   -999.2500   -999.2500     10.2576
  2617.4000   -999.2500   -999.2500   -999.2500   -999.2500     10.2943
  2617.6000   -999.2500   -999.2500   -999.2500   -999.2500     10.5721
  2617.8000   -999.2500   -999.2500   -999.2500   -999.2500     15.5205
  2618.0000   -999.2500   -999.2500   -999.2500   -999.2500     17.4819
  2618.2000   -999.2500   -999.2500   -999.2500   -999.2500     16.9725
  2618.4000   -999.2500   -999.2500   -999.2500   -999.2500     18.1083
  2618.6000   -999.2500   -999.2500   -999.2500   -999.2500     15.0530
  2618.8000   -999.2500   -999.2500   -999.2500   -999.2500     14.3237
  2619.0000   -999.2500   -999.2500   -999.2500   -999.2500     16.5616
  2619.2000   -999.2500   -999.2500   -999.2500   -999.2500     16.4574
  2619.4000   -999.2500   -999.2500   -999.2500   -999.2500     16.2151
  2619.6000   -999.2500   -999.2500   -999.2500   -999.2500     14.9723
  2619.8000   -999.2500   -999.2500   -999.2500   -999.2500     13.2232
  2620.0000   -999.2500   -999.2500   -999.2500   -999.2500     11.8942
  2620.2000   -999.2500   -999.2500   -999.2500   -999.2500      9.4000
  2620.4000   -999.2500   -999.2500   -999.2500   -999.2500     15.9602
  2620.6000   -999.2500   -999.2500   -999.2500   -999.2500     18.0956
  2620.8000   -999.2500   -999.2500   -999.2500   -999.2500     13.3757
  2621.0000   -999.2500   -999.2500   -999.2500   -999.2500     13.1361
