~Version Information
 VERS. 2.0                             : CWLS Log ASCII Standard - Version 2.0
 WRAP. NO                              : One line per depth step
 PROG.                                 : SeisWare LAS Export
#
~Well Information
#MNEM.UNIT     DATA                    : DESCRIPTION
#----.----     ---------               : -----------------
 STRT.M        1098.0000               : Start Depth
 STOP.M        2633.4000               : End Depth
 STEP.M           0.2000               : Depth Increment
 NULL.          -999.250               : Null Value
 WELL.         DUCE TABLELAND V1U 8A- 22-2-9        : Common Well Name
 UWI .         111082200209W200        : Unique Well ID
 FLD .         TABLELAND               : Field Name
 PROV.         Saskatchewan            : Province / State
#
~Parameter Information
#MNEM.UNIT     VALUE                   : DESCRIPTION
#----.----     ---------               : -----------------
 EREF.M         570.2000               : Elevation of Depth Reference
 DREF.         KB                      : Depth Reference
 EGL .M         563.3000               : Ground Level Elevation
 EKB .M         570.2000               : Kelly Bushing Elevation
#
~Other Information
# SeisWare LAS Export
#
~Curve Information
#MNEM.UNIT        API CODE             : CURVE DESCRIPTION
#----.----        ---------            : -----------------
 DEPT.M                                : Depth
 DEN .K/M3                             : HRDD STANDARD RESOLUTION FORMATION DENSITY
 DENPOR.%                                : 9       COMPRESSIONAL TO SHEAR VELOCITY RATIO
 DT  .US/M                             : 3       DELTA-T COMPRESSIONAL, RECEIVER ARRAY - MONOPOLE P&S
 SONPOR.%                                : 8       POISSON SHEAR/COMPRESSIONAL RATIO
 POR .%                                : Porosity
#
~A     DEPT         DEN      DENPOR          DT      SONPOR         POR
# ...
  1299.6000   1922.0000     58.5190    435.4000     63.0400   -999.2500
  1299.8000   2016.0000     52.7160    459.8000     68.2950   -999.2500
  1300.0000   1946.0000     57.0370    476.5000     71.8920   -999.2500
  1300.2000   1815.0000     65.1230    486.3000     74.0030   -999.2500
  1300.4000   1705.0000     71.9140    495.9000     76.0710   -999.2500
  1300.6000   1766.0000     68.1480    473.6000     71.2680   -999.2500
  1300.8000   1822.0000     64.6910    465.0000     69.4150   -999.2500
  1301.0000   1953.0000     56.6050    462.7000     68.9200   -999.2500
  1301.2000   1924.0000     58.3950    468.8000     70.2340   -999.2500
  1301.4000   1805.0000     65.7410    472.7000     71.0740   -999.2500
  1301.6000   1856.0000     62.5930    470.0000     70.4920   -999.2500
  1301.8000   1979.0000     55.0000    462.8000     68.9410   -999.2500
  1302.0000   2017.9000     52.5990    455.4000     67.3480   -999.2500
  1302.2000   1941.0000     57.3460    450.8000     66.3570   -999.2500
  1302.4000   1789.0000     66.7280    452.1000     66.6370   -999.2500
  1302.6000   1872.0000     61.6050    431.1000     62.1140   -999.2500
  1302.8000   2022.0000     52.3460    364.6000     47.7910   -999.2500
  1303.0000   2033.0000     51.6670    373.1000     49.6210   -999.2500
  1303.2000   1909.0000     59.3210    451.6000     66.5290   -999.2500
  1303.4000   1847.0000     63.1480    460.0000     68.3380   -999.2500
  1303.6000   1889.0000     60.5560    462.8000     68.9410   -999.2500
  1303.8000   1935.0000     57.7160    463.2000     69.0280   -999.2500
  1304.0000   1932.0000     57.9010    455.4000     67.3480   -999.2500
  1304.2000   1904.0000     59.6300    446.3000     65.3880   -999.2500
  1304.4000   1909.0000     59.3210    444.1000     64.9140   -999.2500
  1304.6000   1881.0000     61.0490    456.4000     67.5630   -999.2500
  1304.8000   1876.0000     61.3580    453.5000     66.9380   -999.2500
  1305.0000   1978.0000     55.0620    428.2000     61.4890   -999.2500
  1305.2000   2023.0000     52.2840    390.5000     53.3690   -999.2500
  1305.4000   2060.0000     50.0000    365.8000     48.0490   -999.2500
  1305.6000   2017.9000     52.5990    372.8000     49.5570   -999.2500
  1305.8000   2006.0000     53.3330    375.2000     50.0740   -999.2500
  1306.0000   1974.0000     55.3090    362.8000     47.4030   -999.2500
  1306.2000   2040.0000     51.2350    352.6000     45.2060   -999.2500
  1306.4000   2054.0000     50.3700    359.5000     46.6920   -999.2500
  1306.6000   2012.0000     52.9630    395.8000     54.5110   -999.2500
  1306.8000   1985.0000     54.6300    411.3000     57.8490   -999.2500
  1307.0000   2029.0000     51.9140    415.5000     58.7540   -999.2500
  1307.2000   2048.0000     50.7410    423.6000     60.4980   -999.2500
  1307.4000   1824.0000     64.5680    446.9000     65.5170   -999.2500
  1307.6000   1698.0000     72.3460    482.8000     73.2490   -999.2500
  1307.8000   1700.0000     72.2220    478.9000     72.4090   -999.2500
  1308.0000   1928.0000     58.1480    467.8000     70.0180   -999.2500
  1308.2000   2076.0000     49.0120    369.7000     48.8890   -999.2500
  1308.4000   2106.0000     47.1600    326.1000     39.4980   -999.2500
  1308.6000   2182.0000     42.4690    300.2000     33.9200   -999.2500
  1308.8000   1986.0000     54.5680    315.0000     37.1070   -999.2500
  1309.0000   1922.0000     58.5190    389.5000     53.1540   -999.2500
  1309.2000   1968.0000     55.6790    386.2000     52.4430   -999.2500
  1309.4000   1997.0000     53.8890    374.1000     49.8370   -999.2500
  1309.6000   1909.0000     59.3210    418.7000     59.4430   -999.2500
  1309.8000   1868.0000     61.8520    435.9000     63.1480   -999.2500
  1310.0000   1914.0000     59.0120    427.0000     61.2310   -999.2500
  1310.2000   1983.0000     54.7530    376.6000     50.3750   -999.2500
  1310.4000   2148.0000     44.5680    302.1000     34.3290   -999.2500
  1310.6000   2528.0000     21.1110    304.8000     34.9100   -999.2500
  1310.8000   2518.0000     21.7280    304.2000     34.7810   -999.2500
  1311.0000   2306.0000     34.8150    338.1000     42.0830   -999.2500
  1311.2000   1859.0000     62.4070    368.6000     48.6520   -999.2500
  1311.4000   1859.0000     62.4070    385.1000     52.2060   -999.2500
  1311.6000   1885.0000     60.8020    368.5000     48.6310   -999.2500
  1311.8000   1892.0000     60.3700    343.7000     43.2890   -999.2500
  1312.0000   2078.0000     48.8890    332.8000     40.9410   -999.2500
  1312.2000   2236.0000     39.1360    319.6000     38.0980   -999.2500
  1312.4000   2375.9000     30.5000    298.2000     33.4890   -999.2500
  1312.6000   2552.0000     19.6300    291.6000     32.0670   -999.2500
  1312.8000   2571.9000     18.4010    307.9000     35.5780   -999.2500
  1313.0000   2506.0000     22.4690    318.0000     37.7540   -999.2500
  1313.2000   2042.0000     51.1110    351.9000     45.0550   -999.2500
  1313.4000   2026.0000     52.0990    359.2000     46.6270   -999.2500
  1313.6000   2112.0000     46.7900    299.4000     33.7470   -999.2500
  1313.8000   2523.9000     21.3640    269.8000     27.3720   -999.2500
  1314.0000   2514.0000     21.9750    286.6000     30.9900   -999.2500
  1314.2000   2276.0000     36.6670    338.5000     42.1690   -999.2500
  1314.4000   2148.0000     44.5680    342.2000     42.9660   -999.2500
  1314.6000   2236.0000     39.1360    307.2000     35.4270   -999.2500
  1314.8000   2412.0000     28.2720    297.6000     33.3600   -999.2500
  1315.0000   2492.0000     23.3330    296.7000     33.1660   -999.2500
  1315.2000   2544.0000     20.1230    301.7000     34.2430   -999.2500
  1315.4000   2545.9000     20.0060    298.2000     33.4890   -999.2500
  1315.6000   2536.0000     20.6170    291.8000     32.1100   -999.2500
  1315.8000   2548.0000     19.8770    287.3000     31.1410   -999.2500
  1316.0000   2550.0000     19.7530    290.0000     31.7230   -999.2500
  1316.2000   2536.0000     20.6170    310.6000     36.1600   -999.2500
  1316.4000   2500.0000     22.8400    322.1000     38.6370   -999.2500
  1316.6000   2506.0000     22.4690    294.2000     32.6270   -999.2500
  1316.8000   2554.0000     19.5060    288.7000     31.4430   -999.2500
  1317.0000   2552.0000     19.6300    295.5000     32.9070   -999.2500
  1317.2000   2522.0000     21.4810    304.0000     34.7380   -999.2500
  1317.4000   2514.0000     21.9750    304.8000     34.9100   -999.2500
  1317.6000   2522.0000     21.4810    298.0000     33.4460   -999.2500
  1317.8000   2534.0000     20.7410    286.7000     31.0120   -999.2500
  1318.0000   2566.0000     18.7650    283.0000     30.2150   -999.2500
  1318.2000   2582.0000     17.7780    288.6000     31.4210   -999.2500
  1318.4000   2570.0000     18.5190    287.7000     31.2270   -999.2500
  1318.6000   2578.0000     18.0250    290.8000     31.8950   -999.2500
  1318.8000   2580.0000     17.9010    300.4000     33.9630   -999.2500
  1319.0000   2520.0000     21.6050    309.3000     35.8800   -999.2500
  1319.2000   2510.0000     22.2220    299.5000     33.7690   -999.2500
  1319.4000   2540.0000     20.3700    279.7000     29.5040   -999.2500
  1319.6000   2584.0000     17.6540    277.7000     29.0740   -999.2500
  1319.8000   2578.0000     18.0250    283.9000     30.4090   -999.2500
  1320.0000   2490.0000     23.4570    316.1000     37.3440   -999.2500
  1320.2000   2334.0000     33.0860    338.1000     42.0830   -999.2500
  1320.4000   2336.0000     32.9630    329.8000     40.2950   -999.2500
  1320.6000   2366.0000     31.1110    306.4000     35.2550   -999.2500
  1320.8000   2550.0000     19.7530    288.2000     31.3350   -999.2500
  1321.0000   2558.0000     19.2590    272.4000     27.9320   -999.2500
  1321.2000   2574.0000     18.2720    259.0000     25.0460   -999.2500
  1321.4000   2568.0000     18.6420    259.9000     25.2400   -999.2500
  1321.6000   2588.0000     17.4070    277.8000     29.0950   -999.2500
  1321.8000   2568.0000     18.6420    310.5000     36.1380   -999.2500
