~Version Information
 VERS. 2.0                             : CWLS Log ASCII Standard - Version 2.0
 WRAP. NO                              : One line per depth step
 PROG.                                 : SeisWare LAS Export
#
~Well Information
#MNEM.UNIT     DATA                    : DESCRIPTION
#----.----     ---------               : -----------------
 STRT.M        1098.0000               : Start Depth
 STOP.M        2633.4000               : End Depth
 STEP.M           0.2000               : Depth Increment
 NULL.          -999.250               : Null Value
 WELL.         DUCE TABLELAND V1U 8A- 22-2-9        : Common Well Name
 UWI .         111082200209W200        : Unique Well ID
 FLD .         TABLELAND               : Field Name
 PROV.         Saskatchewan            : Province / State
#
~Parameter Information
#MNEM.UNIT     VALUE                   : DESCRIPTION
#----.----     ---------               : -----------------
 EREF.M         570.2000               : Elevation of Depth Reference
 DREF.         KB                      : Depth Reference
 EGL .M         563.3000               : Ground Level Elevation
 EKB .M         570.2000               : Kelly Bushing Elevation
#
~Other Information
# SeisWare LAS Export
#
~Curve Information
#MNEM.UNIT        API CODE             : CURVE DESCRIPTION
#----.----        ---------            : -----------------
 DEPT.M                                : Depth
 DEN .K/M3                             : HRDD STANDARD RESOLUTION FORMATION DENSITY
 DENPOR.%                                : 9       COMPRESSIONAL TO SHEAR VELOCITY RATIO
 DT  .US/M                             : 3       DELTA-T COMPRESSIONAL, RECEIVER ARRAY - MONOPOLE P&S
 SONPOR.%                                : 8       POISSON SHEAR/COMPRESSIONAL RATIO
 POR .%                                : Porosity
#
~A     DEPT         DEN      DENPOR          DT      SONPOR         POR
# ...
  2509.2000   2068.0000     49.5060    229.7000     18.7350   -999.2500
  2509.4000   2082.0000     48.6420    230.4000     18.8860   -999.2500
  2509.6000   2068.0000     49.5060    229.3000     18.6490   -999.2500
  2509.8000   2084.0000     48.5190    229.0000     18.5840   -999.2500
  2510.0000   2104.0000     47.2840    227.9000     18.3470   -999.2500
  2510.2000   2086.0000     48.3950    226.2000     17.9810   -999.2500
  2510.4000   2068.0000     49.5060    226.2000     17.9810   -999.2500
  2510.6000   2093.9000     47.9070    226.8000     18.1100   -999.2500
  2510.8000   2102.0000     47.4070    228.6000     18.4980   -999.2500
  2511.0000   2106.0000     47.1600    231.0000     19.0150   -999.2500
  2511.2000   2092.0000     48.0250    230.1000     18.8210   -999.2500
  2511.4000   2054.0000     50.3700    230.7000     18.9500   -999.2500
  2511.6000   2035.0000     51.5430    229.3000     18.6490   -999.2500
  2511.8000   2023.0000     52.2840    228.9000     18.5630   -999.2500
  2512.0000   2030.9000     51.7960    228.9000     18.5630   -999.2500
  2512.2000   2056.0000     50.2470    228.0000     18.3690   -999.2500
  2512.4000   2082.0000     48.6420    227.0000     18.1530   -999.2500
  2512.6000   2036.0000     51.4810    225.8000     17.8950   -999.2500
  2512.8000   2062.0000     49.8770    227.9000     18.3470   -999.2500
  2513.0000   2126.0000     45.9260    235.3000     19.9410   -999.2500
  2513.2000   2166.0000     43.4570    250.0000     23.1070   -999.2500
  2513.4000   2108.0000     47.0370    242.5000     21.4920   -999.2500
  2513.6000   2068.0000     49.5060    228.3000     18.4330   -999.2500
  2513.8000   2062.0000     49.8770    227.4000     18.2400   -999.2500
  2514.0000   2052.0000     50.4940    226.1000     17.9600   -999.2500
  2514.2000   2036.0000     51.4810    224.6000     17.6370   -999.2500
  2514.4000   2027.0000     52.0370    224.3000     17.5720   -999.2500
  2514.6000   2030.0000     51.8520    225.4000     17.8090   -999.2500
  2514.8000   2038.0000     51.3580    227.2000     18.1970   -999.2500
  2515.0000   2038.0000     51.3580    228.3000     18.4330   -999.2500
  2515.2000   2032.0000     51.7280    228.6000     18.4980   -999.2500
  2515.4000   2029.0000     51.9140    228.5000     18.4770   -999.2500
  2515.6000   2030.9000     51.7960    227.4000     18.2400   -999.2500
  2515.8000   2036.0000     51.4810    227.1000     18.1750   -999.2500
  2516.0000   2033.0000     51.6670    227.9000     18.3470   -999.2500
  2516.2000   2020.0000     52.4690    228.7000     18.5200   -999.2500
  2516.4000   2009.0000     53.1480    228.6000     18.4980   -999.2500
  2516.6000   2022.0000     52.3460    227.9000     18.3470   -999.2500
  2516.8000   2040.0000     51.2350    227.5000     18.2610   -999.2500
  2517.0000   2030.9000     51.7960    227.7000     18.3040   -999.2500
  2517.2000   2020.9000     52.4140    229.7000     18.7350   -999.2500
  2517.4000   2032.0000     51.7280    228.3000     18.4330   -999.2500
  2517.6000   2036.0000     51.4810    227.7000     18.3040   -999.2500
  2517.8000   2032.0000     51.7280    227.9000     18.3470   -999.2500
  2518.0000   2039.0000     51.2960    227.0000     18.1530   -999.2500
  2518.2000   2052.0000     50.4940    226.8000     18.1100   -999.2500
  2518.4000   2045.0000     50.9260    227.1000     18.1750   -999.2500
  2518.6000   2022.0000     52.3460    228.8000     18.5410   -999.2500
  2518.8000   2017.0000     52.6540    229.8000     18.7570   -999.2500
  2519.0000   2033.0000     51.6670    229.5000     18.6920   -999.2500
  2519.2000   2036.0000     51.4810    229.6000     18.7130   -999.2500
  2519.4000   2035.0000     51.5430    229.8000     18.7570   -999.2500
  2519.6000   2037.0000     51.4200    229.4000     18.6700   -999.2500
  2519.8000   2046.0000     50.8640    230.8000     18.9720   -999.2500
  2520.0000   2052.0000     50.4940    230.9000     18.9930   -999.2500
  2520.2000   2033.0000     51.6670    230.0000     18.8000   -999.2500
  2520.4000   2027.0000     52.0370    229.4000     18.6700   -999.2500
  2520.6000   2036.0000     51.4810    229.0000     18.5840   -999.2500
  2520.8000   2040.0000     51.2350    229.1000     18.6060   -999.2500
  2521.0000   2054.0000     50.3700    229.6000     18.7130   -999.2500
  2521.2000   2058.0000     50.1230    229.8000     18.7570   -999.2500
  2521.4000   2056.0000     50.2470    229.4000     18.6700   -999.2500
  2521.6000   2048.0000     50.7410    229.0000     18.5840   -999.2500
  2521.8000   2045.0000     50.9260    228.6000     18.4980   -999.2500
  2522.0000   2043.9000     50.9940    229.0000     18.5840   -999.2500
  2522.2000   2033.0000     51.6670    228.9000     18.5630   -999.2500
  2522.4000   2022.0000     52.3460    228.9000     18.5630   -999.2500
  2522.6000   2023.0000     52.2840    230.5000     18.9070   -999.2500
  2522.8000   2078.0000     48.8890    231.3000     19.0800   -999.2500
  2523.0000   2090.0000     48.1480    232.0000     19.2300   -999.2500
  2523.2000   2096.0000     47.7780    230.7000     18.9500   -999.2500
  2523.4000   2060.0000     50.0000    228.8000     18.5410   -999.2500
  2523.6000   2030.9000     51.7960    228.5000     18.4770   -999.2500
  2523.8000   2023.9000     52.2280    229.0000     18.5840   -999.2500
  2524.0000   2017.0000     52.6540    229.6000     18.7130   -999.2500
  2524.2000   2022.0000     52.3460    230.0000     18.8000   -999.2500
  2524.4000   2033.9000     51.6110    230.8000     18.9720   -999.2500
  2524.6000   2048.0000     50.7410    229.8000     18.7570   -999.2500
  2524.8000   2054.0000     50.3700    228.0000     18.3690   -999.2500
  2525.0000   2043.0000     51.0490    229.5000     18.6920   -999.2500
  2525.2000   2032.0000     51.7280    231.3000     19.0800   -999.2500
  2525.4000   2027.0000     52.0370    230.8000     18.9720   -999.2500
  2525.6000   2025.0000     52.1600    229.3000     18.6490   -999.2500
  2525.8000   2017.9000     52.5990    228.1000     18.3900   -999.2500
  2526.0000   2030.0000     51.8520    227.8000     18.3260   -999.2500
  2526.2000   2033.0000     51.6670    228.1000     18.3900   -999.2500
  2526.4000   2043.0000     51.0490    230.2000     18.8430   -999.2500
  2526.6000   2056.0000     50.2470    232.0000     19.2300   -999.2500
  2526.8000   2036.0000     51.4810    230.1000     18.8210   -999.2500
  2527.0000   2025.0000     52.1600    229.0000     18.5840   -999.2500
  2527.2000   2032.0000     51.7280    228.3000     18.4330   -999.2500
  2527.4000   2030.9000     51.7960    227.9000     18.3470   -999.2500
  2527.6000   2033.9000     51.6110    228.7000     18.5200   -999.2500
  2527.8000   2027.0000     52.0370    231.0000     19.0150   -999.2500
  2528.0000   2039.0000     51.2960    230.5000     18.9070   -999.2500
  2528.2000   2052.0000     50.4940    227.5000     18.2610   -999.2500
  2528.4000   2058.0000     50.1230    226.9000     18.1320   -999.2500
  2528.6000   2066.0000     49.6300    228.3000     18.4330   -999.2500
  2528.8000   2064.0000     49.7530    230.7000     18.9500   -999.2500
  2529.0000   2056.0000     50.2470    230.3000     18.8640   -999.2500
  2529.2000   2033.9000     51.6110    228.6000     18.4980   -999.2500
  2529.4000   2027.0000     52.0370    227.4000     18.2400   -999.2500
  2529.6000   2023.0000     52.2840    227.8000     18.3260   -999.2500
  2529.8000   2023.0000     52.2840    227.4000     18.2400   -999.2500
  2530.0000   2029.0000     51.9140    229.3000     18.6490   -999.2500
  2530.2000   2078.0000     48.8890    236.2000     20.1350   -999.2500
  2530.4000   2160.0000     43.8270    239.1000     20.7600   -999.2500
  2530.6000   2120.0000     46.2960    231.1000     19.0370   -999.2500
  2530.8000   2072.0000     49.2590    229.2000     18.6270   -999.2500
  2531.0000   2050.0000     50.6170    228.2000     18.4120   -999.2500
  2531.2000   2033.9000     51.6110    228.2000     18.4120   -999.2500
  2531.4000   2046.0000     50.8640    228.8000     18.5410   -999.2500
