~Version Information
 VERS. 2.0                             : CWLS Log ASCII Standard - Version 2.0
 WRAP. NO                              : One line per depth step
 PROG.                                 : SeisWare LAS Export
#
~Well Information
#MNEM.UNIT     DATA                    : DESCRIPTION
#----.----     ---------               : -----------------
 STRT.M        1098.0000               : Start Depth
 STOP.M        2633.4000               : End Depth
 STEP.M           0.2000               : Depth Increment
 NULL.          -999.250               : Null Value
 WELL.         DUCE TABLELAND V1U 8A- 22-2-9        : Common Well Name
 UWI .         111082200209W200        : Unique Well ID
 FLD .         TABLELAND               : Field Name
 PROV.         Saskatchewan            : Province / State
#
~Parameter Information
#MNEM.UNIT     VALUE                   : DESCRIPTION
#----.----     ---------               : -----------------
 EREF.M         570.2000               : Elevation of Depth Reference
 DREF.         KB                      : Depth Reference
 EGL .M         563.3000               : Ground Level Elevation
 EKB .M         570.2000               : Kelly Bushing Elevation
#
~Other Information
# SeisWare LAS Export
#
~Curve Information
#MNEM.UNIT        API CODE             : CURVE DESCRIPTION
#----.----        ---------            : -----------------
 DEPT.M                                : Depth
 DEN .K/M3                             : HRDD STANDARD RESOLUTION FORMATION DENSITY
 DENPOR.%                                : 9       COMPRESSIONAL TO SHEAR VELOCITY RATIO
 DT  .US/M                             : 3       DELTA-T COMPRESSIONAL, RECEIVER ARRAY - MONOPOLE P&S
 SONPOR.%                                : 8       POISSON SHEAR/COMPRESSIONAL RATIO
 POR .%                                : Porosity
#
~A     DEPT         DEN      DENPOR          DT      SONPOR         POR
# ...
  2195.6000   2784.0000      5.3090    181.1000      8.2670   -999.2500
  2195.8000   2784.0000      5.3090    177.9000      7.5780   -999.2500
  2196.0000   2816.0000      3.3330    175.6000      7.0830   -999.2500
  2196.2000   2808.0000      3.8270    174.9000      6.9320   -999.2500
  2196.4000   2806.0000      3.9510    175.0000      6.9530   -999.2500
  2196.6000   2820.0000      3.0860    175.8000      7.1260   -999.2500
  2196.8000   2846.0000      1.4810    175.3000      7.0180   -999.2500
  2197.0000   2846.0000      1.4810    172.0000      6.3070   -999.2500
  2197.2000   2838.0000      1.9750    169.1000      5.6830   -999.2500
  2197.4000   2858.0000      0.7410    167.7000      5.3810   -999.2500
  2197.6000   2928.0000     -3.5800    167.8000      5.4030   -999.2500
  2197.8000   2946.0000     -4.6910    169.1000      5.6830   -999.2500
  2198.0000   2958.0000     -5.4320    169.2000      5.7040   -999.2500
  2198.2000   2928.0000     -3.5800    169.9000      5.8550   -999.2500
  2198.4000   2868.0000      0.1230    170.7000      6.0270   -999.2500
  2198.6000   2822.0000      2.9630    166.6000      5.1440   -999.2500
  2198.8000   2802.0000      4.1980    162.4000      4.2400   -999.2500
  2199.0000   2795.9000      4.5740    162.4000      4.2400   -999.2500
  2199.2000   2776.0000      5.8020    168.6000      5.5750   -999.2500
  2199.4000   2780.0000      5.5560    185.0000      9.1070   -999.2500
  2199.6000   2812.0000      3.5800    176.0000      7.1690   -999.2500
  2199.8000   2862.0000      0.4940    174.8000      6.9100   -999.2500
  2200.0000   2894.0000     -1.4810    176.8000      7.3410   -999.2500
  2200.2000   2902.0000     -1.9750    173.9000      6.7160   -999.2500
  2200.4000   2902.0000     -1.9750    168.5000      5.5530   -999.2500
  2200.6000   2892.0000     -1.3580    166.1000      5.0360   -999.2500
  2200.8000   2890.0000     -1.2350    166.5000      5.1230   -999.2500
  2201.0000   2856.0000      0.8640    174.2000      6.7810   -999.2500
  2201.2000   2778.0000      5.6790    188.9000      9.9470   -999.2500
  2201.4000   2659.9000     12.9690    208.6000     14.1900   -999.2500
  2201.6000   2662.0000     12.8400    204.9000     13.3930   -999.2500
  2201.8000   2686.0000     11.3580    199.5000     12.2300   -999.2500
  2202.0000   2704.0000     10.2470    197.5000     11.8000   -999.2500
  2202.2000   2720.0000      9.2590    196.2000     11.5200   -999.2500
  2202.4000   2724.0000      9.0120    194.8000     11.2180   -999.2500
  2202.6000   2710.0000      9.8770    196.5000     11.5840   -999.2500
  2202.8000   2706.0000     10.1230    196.3000     11.5410   -999.2500
  2203.0000   2707.9000     10.0060    194.7000     11.1960   -999.2500
  2203.2000   2782.0000      5.4320    185.1000      9.1290   -999.2500
  2203.4000   2842.0000      1.7280    172.7000      6.4580   -999.2500
  2203.6000   2894.0000     -1.4810    170.4000      5.9630   -999.2500
  2203.8000   2860.0000      0.6170    177.9000      7.5780   -999.2500
  2204.0000   2744.0000      7.7780    177.6000      7.5130   -999.2500
  2204.2000   2710.0000      9.8770    172.0000      6.3070   -999.2500
  2204.4000   2706.0000     10.1230    163.9000      4.5630   -999.2500
  2204.6000   2714.0000      9.6300    160.1000      3.7440   -999.2500
  2204.8000   2718.0000      9.3830    160.3000      3.7870   -999.2500
  2205.0000   2722.0000      9.1360    161.9000      4.1320   -999.2500
  2205.2000   2718.0000      9.3830    163.6000      4.4980   -999.2500
  2205.4000   2724.0000      9.0120    164.3000      4.6490   -999.2500
  2205.6000   2720.0000      9.2590    163.5000      4.4760   -999.2500
  2205.8000   2702.0000     10.3700    163.3000      4.4330   -999.2500
  2206.0000   2714.0000      9.6300    162.9000      4.3470   -999.2500
  2206.2000   2710.0000      9.8770    162.3000      4.2180   -999.2500
  2206.4000   2710.0000      9.8770    162.2000      4.1960   -999.2500
  2206.6000   2720.0000      9.2590    162.3000      4.2180   -999.2500
  2206.8000   2722.0000      9.1360    162.2000      4.1960   -999.2500
  2207.0000   2712.0000      9.7530    162.2000      4.1960   -999.2500
  2207.2000   2686.0000     11.3580    162.5000      4.2610   -999.2500
  2207.4000   2692.0000     10.9880    163.2000      4.4120   -999.2500
  2207.6000   2702.0000     10.3700    164.5000      4.6920   -999.2500
  2207.8000   2710.0000      9.8770    165.3000      4.8640   -999.2500
  2208.0000   2702.0000     10.3700    164.8000      4.7560   -999.2500
  2208.2000   2724.0000      9.0120    163.4000      4.4550   -999.2500
  2208.4000   2748.0000      7.5310    162.2000      4.1960   -999.2500
  2208.6000   2718.0000      9.3830    161.8000      4.1100   -999.2500
  2208.8000   2706.0000     10.1230    162.4000      4.2400   -999.2500
  2209.0000   2720.0000      9.2590    164.2000      4.6270   -999.2500
  2209.2000   2716.0000      9.5060    166.2000      5.0580   -999.2500
  2209.4000   2714.0000      9.6300    167.0000      5.2300   -999.2500
  2209.6000   2706.0000     10.1230    166.2000      5.0580   -999.2500
  2209.8000   2714.0000      9.6300    165.8000      4.9720   -999.2500
  2210.0000   2707.9000     10.0060    166.0000      5.0150   -999.2500
  2210.2000   2714.0000      9.6300    165.1000      4.8210   -999.2500
  2210.4000   2722.0000      9.1360    163.3000      4.4330   -999.2500
  2210.6000   2722.0000      9.1360    161.6000      4.0670   -999.2500
  2210.8000   2726.0000      8.8890    160.0000      3.7230   -999.2500
  2211.0000   2732.0000      8.5190    165.4000      4.8860   -999.2500
  2211.2000   2688.0000     11.2350    187.9000      9.7320   -999.2500
  2211.4000   2634.0000     14.5680    215.0000     15.5690   -999.2500
  2211.6000   2636.0000     14.4440    210.7000     14.6430   -999.2500
  2211.8000   2680.0000     11.7280    199.0000     12.1230   -999.2500
  2212.0000   2716.0000      9.5060    193.2000     10.8730   -999.2500
  2212.2000   2764.0000      6.5430    187.8000      9.7100   -999.2500
  2212.4000   2784.0000      5.3090    182.2000      8.5040   -999.2500
  2212.6000   2788.0000      5.0620    170.1000      5.8980   -999.2500
  2212.8000   2751.9000      7.2900    164.7000      4.7350   -999.2500
  2213.0000   2740.0000      8.0250    160.5000      3.8300   -999.2500
  2213.2000   2722.0000      9.1360    161.3000      4.0030   -999.2500
  2213.4000   2710.0000      9.8770    162.8000      4.3260   -999.2500
  2213.6000   2706.0000     10.1230    163.8000      4.5410   -999.2500
  2213.8000   2710.0000      9.8770    164.9000      4.7780   -999.2500
  2214.0000   2707.9000     10.0060    165.9000      4.9930   -999.2500
  2214.2000   2718.0000      9.3830    165.4000      4.8860   -999.2500
  2214.4000   2722.0000      9.1360    163.6000      4.4980   -999.2500
  2214.6000   2740.0000      8.0250    163.0000      4.3690   -999.2500
  2214.8000   2736.0000      8.2720    172.3000      6.3720   -999.2500
  2215.0000   2698.0000     10.6170    206.4000     13.7170   -999.2500
  2215.2000   2696.0000     10.7410    202.7000     12.9200   -999.2500
  2215.4000   2836.0000      2.0990    185.5000      9.2150   -999.2500
  2215.6000   2918.0000     -2.9630    167.4000      5.3160   -999.2500
  2215.8000   2938.0000     -4.1980    166.0000      5.0150   -999.2500
  2216.0000   2948.0000     -4.8150    165.3000      4.8640   -999.2500
  2216.2000   2926.0000     -3.4570    164.0000      4.5840   -999.2500
  2216.4000   2862.0000      0.4940    165.4000      4.8860   -999.2500
  2216.6000   2800.0000      4.3210    168.4000      5.5320   -999.2500
  2216.8000   2792.0000      4.8150    171.6000      6.2210   -999.2500
  2217.0000   2844.0000      1.6050    171.0000      6.0920   -999.2500
  2217.2000   2890.0000     -1.2350    170.6000      6.0060   -999.2500
  2217.4000   2932.0000     -3.8270    170.3000      5.9410   -999.2500
  2217.6000   2946.0000     -4.6910    169.2000      5.7040   -999.2500
  2217.8000   2958.0000     -5.4320    169.9000      5.8550   -999.2500
