~Version Information
 VERS. 2.0                             : CWLS Log ASCII Standard - Version 2.0
 WRAP. NO                              : One line per depth step
 PROG.                                 : SeisWare LAS Export
#
~Well Information
#MNEM.UNIT     DATA                    : DESCRIPTION
#----.----     ---------               : -----------------
 STRT.M        1098.0000               : Start Depth
 STOP.M        2633.4000               : End Depth
 STEP.M           0.2000               : Depth Increment
 NULL.          -999.250               : Null Value
 WELL.         DUCE TABLELAND V1U 8A- 22-2-9        : Common Well Name
 UWI .         111082200209W200        : Unique Well ID
 FLD .         TABLELAND               : Field Name
 PROV.         Saskatchewan            : Province / State
#
~Parameter Information
#MNEM.UNIT     VALUE                   : DESCRIPTION
#----.----     ---------               : -----------------
 EREF.M         570.2000               : Elevation of Depth Reference
 DREF.         KB                      : Depth Reference
 EGL .M         563.3000               : Ground Level Elevation
 EKB .M         570.2000               : Kelly Bushing Elevation
#
~Other Information
# SeisWare LAS Export
#
~Curve Information
#MNEM.UNIT        API CODE             : CURVE DESCRIPTION
#----.----        ---------            : -----------------
 DEPT.M                                : Depth
 DEN .K/M3                             : HRDD STANDARD RESOLUTION FORMATION DENSITY
 DENPOR.%                                : 9       COMPRESSIONAL TO SHEAR VELOCITY RATIO
 DT  .US/M                             : 3       DELTA-T COMPRESSIONAL, RECEIVER ARRAY - MONOPOLE P&S
 SONPOR.%                                : 8       POISSON SHEAR/COMPRESSIONAL RATIO
 POR .%                                : Porosity
#
~A     DEPT         DEN      DENPOR          DT      SONPOR         POR
# ...
  1904.4000   2684.0000     11.4810    183.1000      8.6980   -999.2500
  1904.6000   2678.0000     11.8520    187.2000      9.5810   -999.2500
  1904.8000   2650.0000     13.5800    192.9000     10.8090   -999.2500
  1905.0000   2636.0000     14.4440    193.6000     10.9600   -999.2500
  1905.2000   2644.0000     13.9510    192.4000     10.7010   -999.2500
  1905.4000   2634.0000     14.5680    193.7000     10.9810   -999.2500
  1905.6000   2640.0000     14.1980    196.3000     11.5410   -999.2500
  1905.8000   2642.0000     14.0740    193.5000     10.9380   -999.2500
  1906.0000   2637.9000     14.3270    185.2000      9.1500   -999.2500
  1906.2000   2640.0000     14.1980    180.8000      8.2030   -999.2500
  1906.4000   2644.0000     13.9510    179.6000      7.9440   -999.2500
  1906.6000   2652.0000     13.4570    176.2000      7.2120   -999.2500
  1906.8000   2688.0000     11.2350    176.6000      7.2980   -999.2500
  1907.0000   2681.9000     11.6110    178.2000      7.6430   -999.2500
  1907.2000   2672.0000     12.2220    181.0000      8.2460   -999.2500
  1907.4000   2674.0000     12.0990    183.3000      8.7410   -999.2500
  1907.6000   2666.0000     12.5930    180.2000      8.0730   -999.2500
  1907.8000   2659.9000     12.9690    179.1000      7.8360   -999.2500
  1908.0000   2662.0000     12.8400    176.8000      7.3410   -999.2500
  1908.2000   2684.0000     11.4810    173.5000      6.6300   -999.2500
  1908.4000   2710.0000      9.8770    173.3000      6.5870   -999.2500
  1908.6000   2704.0000     10.2470    174.1000      6.7600   -999.2500
  1908.8000   2664.0000     12.7160    174.8000      6.9100   -999.2500
  1909.0000   2659.9000     12.9690    179.0000      7.8150   -999.2500
  1909.2000   2658.0000     13.0860    184.3000      8.9560   -999.2500
  1909.4000   2670.0000     12.3460    190.8000     10.3560   -999.2500
  1909.6000   2652.0000     13.4570    190.0000     10.1840   -999.2500
  1909.8000   2642.0000     14.0740    187.1000      9.5600   -999.2500
  1910.0000   2642.0000     14.0740    187.2000      9.5810   -999.2500
  1910.2000   2636.0000     14.4440    188.2000      9.7960   -999.2500
  1910.4000   2640.0000     14.1980    185.0000      9.1070   -999.2500
  1910.6000   2624.0000     15.1850    182.7000      8.6120   -999.2500
  1910.8000   2606.0000     16.2960    184.8000      9.0640   -999.2500
  1911.0000   2596.0000     16.9140    192.0000     10.6150   -999.2500
  1911.2000   2580.0000     17.9010    199.5000     12.2300   -999.2500
  1911.4000   2582.0000     17.7780    202.0000     12.7690   -999.2500
  1911.6000   2571.9000     18.4010    204.0000     13.2000   -999.2500
  1911.8000   2564.0000     18.8890    207.1000     13.8670   -999.2500
  1912.0000   2576.0000     18.1480    213.0000     15.1380   -999.2500
  1912.2000   2562.0000     19.0120    214.9000     15.5470   -999.2500
  1912.4000   2534.0000     20.7410    207.5000     13.9530   -999.2500
  1912.6000   2592.0000     17.1600    186.9000      9.5160   -999.2500
  1912.8000   2612.0000     15.9260    174.3000      6.8030   -999.2500
  1913.0000   2636.0000     14.4440    172.7000      6.4580   -999.2500
  1913.2000   2668.0000     12.4690    172.7000      6.4580   -999.2500
  1913.4000   2676.0000     11.9750    174.7000      6.8890   -999.2500
  1913.6000   2698.0000     10.6170    177.9000      7.5780   -999.2500
  1913.8000   2681.9000     11.6110    179.6000      7.9440   -999.2500
  1914.0000   2658.0000     13.0860    177.0000      7.3840   -999.2500
  1914.2000   2640.0000     14.1980    174.5000      6.8460   -999.2500
  1914.4000   2634.0000     14.5680    174.1000      6.7600   -999.2500
  1914.6000   2656.0000     13.2100    177.6000      7.5130   -999.2500
  1914.8000   2664.0000     12.7160    184.0000      8.8920   -999.2500
  1915.0000   2662.0000     12.8400    185.6000      9.2360   -999.2500
  1915.2000   2646.0000     13.8270    177.9000      7.5780   -999.2500
  1915.4000   2636.0000     14.4440    173.7000      6.6730   -999.2500
  1915.6000   2652.0000     13.4570    169.0000      5.6610   -999.2500
  1915.8000   2672.0000     12.2220    166.2000      5.0580   -999.2500
  1916.0000   2680.0000     11.7280    166.4000      5.1010   -999.2500
  1916.2000   2696.0000     10.7410    167.6000      5.3600   -999.2500
  1916.4000   2698.0000     10.6170    168.1000      5.4670   -999.2500
  1916.6000   2694.0000     10.8640    172.8000      6.4800   -999.2500
  1916.8000   2684.0000     11.4810    177.4000      7.4700   -999.2500
  1917.0000   2678.0000     11.8520    176.1000      7.1900   -999.2500
  1917.2000   2674.0000     12.0990    174.1000      6.7600   -999.2500
  1917.4000   2658.0000     13.0860    175.4000      7.0400   -999.2500
  1917.6000   2646.0000     13.8270    176.8000      7.3410   -999.2500
  1917.8000   2659.9000     12.9690    177.0000      7.3840   -999.2500
  1918.0000   2678.0000     11.8520    174.9000      6.9320   -999.2500
  1918.2000   2672.0000     12.2220    176.1000      7.1900   -999.2500
  1918.4000   2632.0000     14.6910    173.5000      6.6300   -999.2500
  1918.6000   2634.0000     14.5680    170.6000      6.0060   -999.2500
  1918.8000   2662.0000     12.8400    174.3000      6.8030   -999.2500
  1919.0000   2666.0000     12.5930    174.9000      6.9320   -999.2500
  1919.2000   2636.0000     14.4440    175.7000      7.1040   -999.2500
  1919.4000   2640.0000     14.1980    178.7000      7.7500   -999.2500
  1919.6000   2654.0000     13.3330    177.9000      7.5780   -999.2500
  1919.8000   2642.0000     14.0740    176.1000      7.1900   -999.2500
  1920.0000   2654.0000     13.3330    176.0000      7.1690   -999.2500
  1920.2000   2662.0000     12.8400    175.5000      7.0610   -999.2500
  1920.4000   2659.9000     12.9690    174.0000      6.7380   -999.2500
  1920.6000   2674.0000     12.0990    171.8000      6.2640   -999.2500
  1920.8000   2688.0000     11.2350    170.0000      5.8760   -999.2500
  1921.0000   2684.0000     11.4810    170.0000      5.8760   -999.2500
  1921.2000   2680.0000     11.7280    171.4000      6.1780   -999.2500
  1921.4000   2674.0000     12.0990    178.0000      7.6000   -999.2500
  1921.6000   2634.0000     14.5680    178.6000      7.7290   -999.2500
  1921.8000   2637.9000     14.3270    178.5000      7.7070   -999.2500
  1922.0000   2637.9000     14.3270    176.5000      7.2760   -999.2500
  1922.2000   2637.9000     14.3270    173.8000      6.6950   -999.2500
  1922.4000   2648.0000     13.7040    172.2000      6.3500   -999.2500
  1922.6000   2659.9000     12.9690    174.6000      6.8670   -999.2500
  1922.8000   2654.0000     13.3330    170.2000      5.9200   -999.2500
  1923.0000   2636.0000     14.4440    172.5000      6.4150   -999.2500
  1923.2000   2614.0000     15.8020    189.9000     10.1630   -999.2500
  1923.4000   2602.0000     16.5430    198.0000     11.9070   -999.2500
  1923.6000   2592.0000     17.1600    196.9000     11.6700   -999.2500
  1923.8000   2584.0000     17.6540    191.2000     10.4430   -999.2500
  1924.0000   2571.9000     18.4010    187.6000      9.6670   -999.2500
  1924.2000   2604.0000     16.4200    190.6000     10.3130   -999.2500
  1924.4000   2634.0000     14.5680    190.4000     10.2700   -999.2500
  1924.6000   2637.9000     14.3270    199.7000     12.2730   -999.2500
  1924.8000   2578.0000     18.0250    209.9000     14.4700   -999.2500
  1925.0000   2566.0000     18.7650    209.4000     14.3630   -999.2500
  1925.2000   2548.0000     19.8770    200.7000     12.4890   -999.2500
  1925.4000   2528.0000     21.1110    196.8000     11.6490   -999.2500
  1925.6000   2520.0000     21.6050    201.6000     12.6830   -999.2500
  1925.8000   2522.0000     21.4810    225.1000     17.7440   -999.2500
  1926.0000   2516.0000     21.8520    234.2000     19.7040   -999.2500
  1926.2000   2504.0000     22.5930    234.5000     19.7690   -999.2500
  1926.4000   2512.0000     22.0990    230.4000     18.8860   -999.2500
  1926.6000   2506.0000     22.4690    216.0000     15.7840   -999.2500
