~Version Information
 VERS. 2.0                             : CWLS Log ASCII Standard - Version 2.0
 WRAP. NO                              : One line per depth step
 PROG.                                 : SeisWare LAS Export
#
~Well Information
#MNEM.UNIT     DATA                    : DESCRIPTION
#----.----     ---------               : -----------------
 STRT.M        1098.0000               : Start Depth
 STOP.M        2633.4000               : End Depth
 STEP.M           0.2000               : Depth Increment
 NULL.          -999.250               : Null Value
 WELL.         DUCE TABLELAND V1U 8A- 22-2-9        : Common Well Name
 UWI .         111082200209W200        : Unique Well ID
 FLD .         TABLELAND               : Field Name
 PROV.         Saskatchewan            : Province / State
#
~Parameter Information
#MNEM.UNIT     VALUE                   : DESCRIPTION
#----.----     ---------               : -----------------
 EREF.M         570.2000               : Elevation of Depth Reference
 DREF.         KB                      : Depth Reference
 EGL .M         563.3000               : Ground Level Elevation
 EKB .M         570.2000               : Kelly Bushing Elevation
#
~Other Information
# SeisWare LAS Export
#
~Curve Information
#MNEM.UNIT        API CODE             : CURVE DESCRIPTION
#----.----        ---------            : -----------------
 DEPT.M                                : Depth
 DEN .K/M3                             : HRDD STANDARD RESOLUTION FORMATION DENSITY
 DENPOR.%                                : 9       COMPRESSIONAL TO SHEAR VELOCITY RATIO
 DT  .US/M                             : 3       DELTA-T COMPRESSIONAL, RECEIVER ARRAY - MONOPOLE P&S
 SONPOR.%                                : 8       POISSON SHEAR/COMPRESSIONAL RATIO
 POR .%                                : Porosity
#
~A     DEPT         DEN      DENPOR          DT      SONPOR         POR
# ...
  2397.2000   2648.0000     13.7040    202.5000     12.8770   -999.2500
  2397.4000   2652.0000     13.4570    208.8000     14.2330   -999.2500
  2397.6000   2654.0000     13.3330    213.3000     15.2030   -999.2500
  2397.8000   2696.0000     10.7410    214.6000     15.4830   -999.2500
  2398.0000   2732.0000      8.5190    207.9000     14.0400   -999.2500
  2398.2000   2758.0000      6.9140    193.1000     10.8520   -999.2500
  2398.4000   2824.0000      2.8400    171.5000      6.2000   -999.2500
  2398.6000   2840.0000      1.8520    158.9000      3.4860   -999.2500
  2398.8000   2806.0000      3.9510    156.8000      3.0330   -999.2500
  2399.0000   2790.0000      4.9380    162.4000      4.2400   -999.2500
  2399.2000   2698.0000     10.6170    182.3000      8.5260   -999.2500
  2399.4000   2636.0000     14.4440    181.2000      8.2890   -999.2500
  2399.6000   2640.0000     14.1980    172.4000      6.3930   -999.2500
  2399.8000   2828.0000      2.5930    168.1000      5.4670   -999.2500
  2400.0000   2892.0000     -1.3580    165.9000      4.9930   -999.2500
  2400.2000   2912.0000     -2.5930    162.6000      4.2830   -999.2500
  2400.4000   2860.0000      0.6170    160.3000      3.7870   -999.2500
  2400.6000   2850.0000      1.2350    164.4000      4.6700   -999.2500
  2400.8000   2820.0000      3.0860    163.6000      4.4980   -999.2500
  2401.0000   2790.0000      4.9380    161.2000      3.9810   -999.2500
  2401.2000   2798.0000      4.4440    164.9000      4.7780   -999.2500
  2401.4000   2826.0000      2.7160    163.6000      4.4980   -999.2500
  2401.6000   2834.0000      2.2220    159.5000      3.6150   -999.2500
  2401.8000   2810.0000      3.7040    157.9000      3.2700   -999.2500
  2402.0000   2792.0000      4.8150    158.5000      3.4000   -999.2500
  2402.2000   2788.0000      5.0620    161.3000      4.0030   -999.2500
  2402.4000   2780.0000      5.5560    164.7000      4.7350   -999.2500
  2402.6000   2760.0000      6.7900    165.7000      4.9500   -999.2500
  2402.8000   2740.0000      8.0250    165.9000      4.9930   -999.2500
  2403.0000   2772.0000      6.0490    162.7000      4.3040   -999.2500
  2403.2000   2800.0000      4.3210    159.2000      3.5500   -999.2500
  2403.4000   2804.0000      4.0740    158.4000      3.3780   -999.2500
  2403.6000   2806.0000      3.9510    159.4000      3.5930   -999.2500
  2403.8000   2802.0000      4.1980    161.3000      4.0030   -999.2500
  2404.0000   2800.0000      4.3210    163.3000      4.4330   -999.2500
  2404.2000   2788.0000      5.0620    165.0000      4.8000   -999.2500
  2404.4000   2768.0000      6.2960    165.5000      4.9070   -999.2500
  2404.6000   2760.0000      6.7900    164.6000      4.7130   -999.2500
  2404.8000   2768.0000      6.2960    164.0000      4.5840   -999.2500
  2405.0000   2788.0000      5.0620    163.4000      4.4550   -999.2500
  2405.2000   2792.0000      4.8150    162.9000      4.3470   -999.2500
  2405.4000   2788.0000      5.0620    165.8000      4.9720   -999.2500
  2405.6000   2744.0000      7.7780    167.5000      5.3380   -999.2500
  2405.8000   2764.0000      6.5430    166.3000      5.0800   -999.2500
  2406.0000   2795.9000      4.5740    162.7000      4.3040   -999.2500
  2406.2000   2802.0000      4.1980    161.4000      4.0240   -999.2500
  2406.4000   2786.0000      5.1850    162.8000      4.3260   -999.2500
  2406.6000   2802.0000      4.1980    162.6000      4.2830   -999.2500
  2406.8000   2798.0000      4.4440    161.4000      4.0240   -999.2500
  2407.0000   2786.0000      5.1850    161.4000      4.0240   -999.2500
  2407.2000   2795.9000      4.5740    161.6000      4.0670   -999.2500
  2407.4000   2808.0000      3.8270    161.6000      4.0670   -999.2500
  2407.6000   2822.0000      2.9630    163.1000      4.3900   -999.2500
  2407.8000   2822.0000      2.9630    166.4000      5.1010   -999.2500
  2408.0000   2802.0000      4.1980    172.9000      6.5010   -999.2500
  2408.2000   2770.0000      6.1730    186.2000      9.3660   -999.2500
  2408.4000   2764.0000      6.5430    184.9000      9.0860   -999.2500
  2408.6000   2776.0000      5.8020    182.9000      8.6550   -999.2500
  2408.8000   2778.0000      5.6790    183.1000      8.6980   -999.2500
  2409.0000   2766.0000      6.4200    183.6000      8.8060   -999.2500
  2409.2000   2758.0000      6.9140    183.4000      8.7630   -999.2500
  2409.4000   2768.0000      6.2960    181.4000      8.3320   -999.2500
  2409.6000   2773.9000      5.9320    179.9000      8.0090   -999.2500
  2409.8000   2778.0000      5.6790    180.9000      8.2240   -999.2500
  2410.0000   2766.0000      6.4200    183.9000      8.8700   -999.2500
  2410.2000   2770.0000      6.1730    186.1000      9.3440   -999.2500
  2410.4000   2770.0000      6.1730    186.1000      9.3440   -999.2500
  2410.6000   2764.0000      6.5430    181.7000      8.3960   -999.2500
  2410.8000   2778.0000      5.6790    185.3000      9.1720   -999.2500
  2411.0000   2780.0000      5.5560    187.8000      9.7100   -999.2500
  2411.2000   2772.0000      6.0490    184.4000      8.9780   -999.2500
  2411.4000   2751.9000      7.2900    182.7000      8.6120   -999.2500
  2411.6000   2750.0000      7.4070    181.6000      8.3750   -999.2500
  2411.8000   2748.0000      7.5310    179.8000      7.9870   -999.2500
  2412.0000   2776.0000      5.8020    181.4000      8.3320   -999.2500
  2412.2000   2776.0000      5.8020    181.6000      8.3750   -999.2500
  2412.4000   2776.0000      5.8020    178.1000      7.6210   -999.2500
  2412.6000   2772.0000      6.0490    177.4000      7.4700   -999.2500
  2412.8000   2778.0000      5.6790    178.4000      7.6860   -999.2500
  2413.0000   2762.0000      6.6670    176.1000      7.1900   -999.2500
  2413.2000   2746.0000      7.6540    171.0000      6.0920   -999.2500
  2413.4000   2738.0000      8.1480    173.3000      6.5870   -999.2500
  2413.6000   2728.0000      8.7650    181.0000      8.2460   -999.2500
  2413.8000   2732.0000      8.5190    183.7000      8.8270   -999.2500
  2414.0000   2744.0000      7.7780    182.6000      8.5900   -999.2500
  2414.2000   2742.0000      7.9010    187.6000      9.6670   -999.2500
  2414.4000   2728.0000      8.7650    198.1000     11.9290   -999.2500
  2414.6000   2716.0000      9.5060    196.5000     11.5840   -999.2500
  2414.8000   2704.0000     10.2470    182.4000      8.5470   -999.2500
  2415.0000   2714.0000      9.6300    174.7000      6.8890   -999.2500
  2415.2000   2720.0000      9.2590    176.1000      7.1900   -999.2500
  2415.4000   2714.0000      9.6300    189.2000     10.0120   -999.2500
  2415.6000   2732.0000      8.5190    192.6000     10.7440   -999.2500
  2415.8000   2751.9000      7.2900    189.3000     10.0330   -999.2500
  2416.0000   2748.0000      7.5310    194.5000     11.1530   -999.2500
  2416.2000   2734.0000      8.3950    195.4000     11.3470   -999.2500
  2416.4000   2718.0000      9.3830    196.1000     11.4980   -999.2500
  2416.6000   2724.0000      9.0120    196.6000     11.6060   -999.2500
  2416.8000   2722.0000      9.1360    194.4000     11.1320   -999.2500
  2417.0000   2736.0000      8.2720    188.6000      9.8830   -999.2500
  2417.2000   2798.0000      4.4440    183.9000      8.8700   -999.2500
  2417.4000   2800.0000      4.3210    183.8000      8.8490   -999.2500
  2417.6000   2792.0000      4.8150    184.0000      8.8920   -999.2500
  2417.8000   2802.0000      4.1980    183.8000      8.8490   -999.2500
  2418.0000   2790.0000      4.9380    189.3000     10.0330   -999.2500
  2418.2000   2746.0000      7.6540    192.8000     10.7870   -999.2500
  2418.4000   2736.0000      8.2720    192.9000     10.8090   -999.2500
  2418.6000   2768.0000      6.2960    188.8000      9.9260   -999.2500
  2418.8000   2792.0000      4.8150    184.6000      9.0210   -999.2500
  2419.0000   2776.0000      5.8020    182.1000      8.4830   -999.2500
  2419.2000   2760.0000      6.7900    184.8000      9.0640   -999.2500
  2419.4000   2750.0000      7.4070    189.6000     10.0980   -999.2500
