~Version Information
 VERS. 2.0                             : CWLS Log ASCII Standard - Version 2.0
 WRAP. NO                              : One line per depth step
 PROG.                                 : SeisWare LAS Export
#
~Well Information
#MNEM.UNIT     DATA                    : DESCRIPTION
#----.----     ---------               : -----------------
 STRT.M        1098.0000               : Start Depth
 STOP.M        2633.4000               : End Depth
 STEP.M           0.2000               : Depth Increment
 NULL.          -999.250               : Null Value
 WELL.         DUCE TABLELAND V1U 8A- 22-2-9        : Common Well Name
 UWI .         111082200209W200        : Unique Well ID
 FLD .         TABLELAND               : Field Name
 PROV.         Saskatchewan            : Province / State
#
~Parameter Information
#MNEM.UNIT     VALUE                   : DESCRIPTION
#----.----     ---------               : -----------------
 EREF.M         570.2000               : Elevation of Depth Reference
 DREF.         KB                      : Depth Reference
 EGL .M         563.3000               : Ground Level Elevation
 EKB .M         570.2000               : Kelly Bushing Elevation
#
~Other Information
# SeisWare LAS Export
#
~Curve Information
#MNEM.UNIT        API CODE             : CURVE DESCRIPTION
#----.----        ---------            : -----------------
 DEPT.M                                : Depth
 DEN .K/M3                             : HRDD STANDARD RESOLUTION FORMATION DENSITY
 DENPOR.%                                : 9       COMPRESSIONAL TO SHEAR VELOCITY RATIO
 DT  .US/M                             : 3       DELTA-T COMPRESSIONAL, RECEIVER ARRAY - MONOPOLE P&S
 SONPOR.%                                : 8       POISSON SHEAR/COMPRESSIONAL RATIO
 POR .%                                : Porosity
#
~A     DEPT         DEN      DENPOR          DT      SONPOR         POR
# ...
  1702.8000   2894.0000     -1.4810    169.6000      5.7900   -999.2500
  1703.0000   2904.0000     -2.0990    171.3000      6.1560   -999.2500
  1703.2000   2962.0000     -5.6790    171.0000      6.0920   -999.2500
  1703.4000   2982.0000     -6.9140    169.6000      5.7900   -999.2500
  1703.6000   2976.0000     -6.5430    171.2000      6.1350   -999.2500
  1703.8000   2932.0000     -3.8270    172.2000      6.3500   -999.2500
  1704.0000   2924.0000     -3.3330    172.1000      6.3290   -999.2500
  1704.2000   2924.0000     -3.3330    170.7000      6.0270   -999.2500
  1704.4000   2944.0000     -4.5680    168.8000      5.6180   -999.2500
  1704.6000   2952.0000     -5.0620    170.7000      6.0270   -999.2500
  1704.8000   2958.0000     -5.4320    174.2000      6.7810   -999.2500
  1705.0000   2932.0000     -3.8270    173.1000      6.5440   -999.2500
  1705.2000   2930.0000     -3.7040    170.2000      5.9200   -999.2500
  1705.4000   2946.0000     -4.6910    170.1000      5.8980   -999.2500
  1705.6000   2924.0000     -3.3330    184.9000      9.0860   -999.2500
  1705.8000   2710.0000      9.8770    233.4000     19.5320   -999.2500
  1706.0000   2542.0000     20.2470    251.4000     23.4090   -999.2500
  1706.2000   2508.0000     22.3460    197.3000     11.7560   -999.2500
  1706.4000   2681.9000     11.6110    195.4000     11.3470   -999.2500
  1706.6000   2700.0000     10.4940    203.3000     13.0490   -999.2500
  1706.8000   2712.0000      9.7530    190.2000     10.2270   -999.2500
  1707.0000   2862.0000      0.4940    174.9000      6.9320   -999.2500
  1707.2000   2922.0000     -3.2100    169.7000      5.8120   -999.2500
  1707.4000   2936.0000     -4.0740    168.2000      5.4890   -999.2500
  1707.6000   2978.0000     -6.6670    171.8000      6.2640   -999.2500
  1707.8000   2968.0000     -6.0490    169.0000      5.6610   -999.2500
  1708.0000   2958.0000     -5.4320    168.1000      5.4670   -999.2500
  1708.2000   2946.0000     -4.6910    168.5000      5.5530   -999.2500
  1708.4000   2944.0000     -4.5680    166.8000      5.1870   -999.2500
  1708.6000   2952.0000     -5.0620    166.6000      5.1440   -999.2500
  1708.8000   2958.0000     -5.4320    166.6000      5.1440   -999.2500
  1709.0000   2960.0000     -5.5560    166.1000      5.0360   -999.2500
  1709.2000   2954.0000     -5.1850    166.0000      5.0150   -999.2500
  1709.4000   2932.0000     -3.8270    168.1000      5.4670   -999.2500
  1709.6000   2856.0000      0.8640    169.2000      5.7040   -999.2500
  1709.8000   2846.0000      1.4810    168.4000      5.5320   -999.2500
  1710.0000   2860.0000      0.6170    171.0000      6.0920   -999.2500
  1710.2000   2870.0000   -999.2500    177.2000      7.4270   -999.2500
  1710.4000   2858.0000      0.7410    176.5000      7.2760   -999.2500
  1710.6000   2842.0000      1.7280    170.0000      5.8760   -999.2500
  1710.8000   2862.0000      0.4940    171.7000      6.2430   -999.2500
  1711.0000   2834.0000      2.2220    194.5000     11.1530   -999.2500
  1711.2000   2786.0000      5.1850    197.3000     11.7560   -999.2500
  1711.4000   2794.0000      4.6910    175.1000      6.9750   -999.2500
  1711.6000   2860.0000      0.6170    173.1000      6.5440   -999.2500
  1711.8000   2868.0000      0.1230    184.5000      9.0000   -999.2500
  1712.0000   2810.0000      3.7040    217.9000     16.1930   -999.2500
  1712.2000   2666.0000     12.5930    224.6000     17.6370   -999.2500
  1712.4000   2674.0000     12.0990    199.2000     12.1660   -999.2500
  1712.6000   2706.0000     10.1230    183.6000      8.8060   -999.2500
  1712.8000   2848.0000      1.3580    168.0000      5.4460   -999.2500
  1713.0000   2920.0000     -3.0860    166.7000      5.1660   -999.2500
  1713.2000   2962.0000     -5.6790    171.8000      6.2640   -999.2500
  1713.4000   2906.0000     -2.2220    185.6000      9.2360   -999.2500
  1713.6000   2840.0000      1.8520    196.1000     11.4980   -999.2500
  1713.8000   2788.0000      5.0620    205.8000     13.5870   -999.2500
  1714.0000   2722.0000      9.1360    211.4000     14.7930   -999.2500
  1714.2000   2724.0000      9.0120    203.1000     13.0060   -999.2500
  1714.4000   2738.0000      8.1480    190.0000     10.1840   -999.2500
  1714.6000   2762.0000      6.6670    173.8000      6.6950   -999.2500
  1714.8000   2850.0000      1.2350    171.2000      6.1350   -999.2500
  1715.0000   2880.0000     -0.6170    171.5000      6.2000   -999.2500
  1715.2000   2866.0000      0.2470    175.0000      6.9530   -999.2500
  1715.4000   2850.0000      1.2350    185.1000      9.1290   -999.2500
  1715.6000   2802.0000      4.1980    208.4000     14.1470   -999.2500
  1715.8000   2762.0000      6.6670    221.4000     16.9470   -999.2500
  1716.0000   2668.0000     12.4690    221.0000     16.8610   -999.2500
  1716.2000   2650.0000     13.5800    210.6000     14.6210   -999.2500
  1716.4000   2648.0000     13.7040    203.2000     13.0270   -999.2500
  1716.6000   2718.0000      9.3830    198.4000     11.9930   -999.2500
  1716.8000   2788.0000      5.0620    205.5000     13.5230   -999.2500
  1717.0000   2776.0000      5.8020    224.3000     17.5720   -999.2500
  1717.2000   2580.0000     17.9010    226.2000     17.9810   -999.2500
  1717.4000   2550.0000     19.7530    212.6000     15.0520   -999.2500
  1717.6000   2570.0000     18.5190    198.7000     12.0580   -999.2500
  1717.8000   2615.9000     15.6850    200.0000     12.3380   -999.2500
  1718.0000   2604.0000     16.4200    198.1000     11.9290   -999.2500
  1718.2000   2588.0000     17.4070    195.3000     11.3260   -999.2500
  1718.4000   2584.0000     17.6540    195.6000     11.3900   -999.2500
  1718.6000   2593.9000     17.0430    199.2000     12.1660   -999.2500
  1718.8000   2588.0000     17.4070    202.2000     12.8120   -999.2500
  1719.0000   2580.0000     17.9010    205.0000     13.4150   -999.2500
  1719.2000   2570.0000     18.5190    206.5000     13.7380   -999.2500
  1719.4000   2564.0000     18.8890    208.4000     14.1470   -999.2500
  1719.6000   2570.0000     18.5190    216.2000     15.8270   -999.2500
  1719.8000   2560.0000     19.1360    223.6000     17.4210   -999.2500
  1720.0000   2544.0000     20.1230    225.5000     17.8300   -999.2500
  1720.2000   2530.0000     20.9880    221.0000     16.8610   -999.2500
  1720.4000   2508.0000     22.3460    214.1000     15.3750   -999.2500
  1720.6000   2544.0000     20.1230    205.4000     13.5010   -999.2500
  1720.8000   2602.0000     16.5430    199.1000     12.1440   -999.2500
  1721.0000   2654.0000     13.3330    199.5000     12.2300   -999.2500
  1721.2000   2686.0000     11.3580    207.8000     14.0180   -999.2500
  1721.4000   2674.0000     12.0990    216.2000     15.8270   -999.2500
  1721.6000   2646.0000     13.8270    218.3000     16.2800   -999.2500
  1721.8000   2570.0000     18.5190    220.7000     16.7970   -999.2500
  1722.0000   2536.0000     20.6170    227.4000     18.2400   -999.2500
  1722.2000   2516.0000     21.8520    234.2000     19.7040   -999.2500
  1722.4000   2482.0000     23.9510    227.4000     18.2400   -999.2500
  1722.6000   2482.0000     23.9510    222.2000     17.1200   -999.2500
  1722.8000   2482.0000     23.9510    219.4000     16.5170   -999.2500
  1723.0000   2506.0000     22.4690    220.6000     16.7750   -999.2500
  1723.2000   2516.0000     21.8520    224.8000     17.6800   -999.2500
  1723.4000   2504.0000     22.5930    235.4000     19.9630   -999.2500
  1723.6000   2448.0000     26.0490    253.4000     23.8400   -999.2500
  1723.8000   2416.0000     28.0250    254.9000     24.1630   -999.2500
  1724.0000   2400.0000     29.0120    238.8000     20.6950   -999.2500
  1724.2000   2428.0000     27.2840    209.0000     14.2770   -999.2500
  1724.4000   2554.0000     19.5060    197.0000     11.6920   -999.2500
  1724.6000   2600.0000     16.6670    187.2000      9.5810   -999.2500
  1724.8000   2630.0000     14.8150    178.9000      7.7930   -999.2500
  1725.0000   2652.0000     13.4570    175.2000      6.9960   -999.2500
