~Version Information
 VERS. 2.0                             : CWLS Log ASCII Standard - Version 2.0
 WRAP. NO                              : One line per depth step
 PROG.                                 : SeisWare LAS Export
#
~Well Information
#MNEM.UNIT     DATA                    : DESCRIPTION
#----.----     ---------               : -----------------
 STRT.M        1098.0000               : Start Depth
 STOP.M        2633.4000               : End Depth
 STEP.M           0.2000               : Depth Increment
 NULL.          -999.250               : Null Value
 WELL.         DUCE TABLELAND V1U 8A- 22-2-9        : Common Well Name
 UWI .         111082200209W200        : Unique Well ID
 FLD .         TABLELAND               : Field Name
 PROV.         Saskatchewan            : Province / State
#
~Parameter Information
#MNEM.UNIT     VALUE                   : DESCRIPTION
#----.----     ---------               : -----------------
 EREF.M         570.2000               : Elevation of Depth Reference
 DREF.         KB                      : Depth Reference
 EGL .M         563.3000               : Ground Level Elevation
 EKB .M         570.2000               : Kelly Bushing Elevation
#
~Other Information
# SeisWare LAS Export
#
~Curve Information
#MNEM.UNIT        API CODE             : CURVE DESCRIPTION
#----.----        ---------            : -----------------
 DEPT.M                                : Depth
 DEN .K/M3                             : HRDD STANDARD RESOLUTION FORMATION DENSITY
 DENPOR.%                                : 9       COMPRESSIONAL TO SHEAR VELOCITY RATIO
 DT  .US/M                             : 3       DELTA-T COMPRESSIONAL, RECEIVER ARRAY - MONOPOLE P&S
 SONPOR.%                                : 8       POISSON SHEAR/COMPRESSIONAL RATIO
 POR .%                                : Porosity
#
~A     DEPT         DEN      DENPOR          DT      SONPOR         POR
# ...
  2307.6000   2724.0000      9.0120    170.3000      5.9410   -999.2500
  2307.8000   2773.9000      5.9320    173.3000      6.5870   -999.2500
  2308.0000   2838.0000      1.9750    172.8000      6.4800   -999.2500
  2308.2000   2780.0000      5.5560    165.5000      4.9070   -999.2500
  2308.4000   2748.0000      7.5310    161.5000      4.0460   -999.2500
  2308.6000   2734.0000      8.3950    164.9000      4.7780   -999.2500
  2308.8000   2784.0000      5.3090    176.2000      7.2120   -999.2500
  2309.0000   2734.0000      8.3950    185.4000      9.1930   -999.2500
  2309.2000   2662.0000     12.8400    184.4000      8.9780   -999.2500
  2309.4000   2614.0000     15.8020    179.9000      8.0090   -999.2500
  2309.6000   2704.0000     10.2470    175.1000      6.9750   -999.2500
  2309.8000   2738.0000      8.1480    170.4000      5.9630   -999.2500
  2310.0000   2756.0000      7.0370    165.4000      4.8860   -999.2500
  2310.2000   2772.0000      6.0490    166.8000      5.1870   -999.2500
  2310.4000   2764.0000      6.5430    174.8000      6.9100   -999.2500
  2310.6000   2720.0000      9.2590    174.1000      6.7600   -999.2500
  2310.8000   2790.0000      4.9380    168.2000      5.4890   -999.2500
  2311.0000   2886.0000     -0.9880    168.0000      5.4460   -999.2500
  2311.2000   2896.0000     -1.6050    174.4000      6.8240   -999.2500
  2311.4000   2762.0000      6.6670    182.0000      8.4610   -999.2500
  2311.6000   2692.0000     10.9880    179.9000      8.0090   -999.2500
  2311.8000   2656.0000     13.2100    181.1000      8.2670   -999.2500
  2312.0000   2606.0000     16.2960    189.0000      9.9690   -999.2500
  2312.2000   2582.0000     17.7780    210.1000     14.5130   -999.2500
  2312.4000   2566.0000     18.7650    218.4000     16.3010   -999.2500
  2312.6000   2532.0000     20.8640    232.6000     19.3600   -999.2500
  2312.8000   2456.0000     25.5560    236.0000     20.0920   -999.2500
  2313.0000   2426.0000     27.4070    216.7000     15.9350   -999.2500
  2313.2000   2438.0000     26.6670    195.6000     11.3900   -999.2500
  2313.4000   2612.0000     15.9260    192.5000     10.7230   -999.2500
  2313.6000   2664.0000     12.7160    189.3000     10.0330   -999.2500
  2313.8000   2670.0000     12.3460    182.2000      8.5040   -999.2500
  2314.0000   2700.0000     10.4940    175.2000      6.9960   -999.2500
  2314.2000   2712.0000      9.7530    167.5000      5.3380   -999.2500
  2314.4000   2728.0000      8.7650    165.3000      4.8640   -999.2500
  2314.6000   2758.0000      6.9140    166.6000      5.1440   -999.2500
  2314.8000   2756.0000      7.0370    169.1000      5.6830   -999.2500
  2315.0000   2742.0000      7.9010    173.2000      6.5660   -999.2500
  2315.2000   2734.0000      8.3950    176.6000      7.2980   -999.2500
  2315.4000   2729.9000      8.6480    179.3000      7.8800   -999.2500
  2315.6000   2754.0000      7.1600    180.6000      8.1600   -999.2500
  2315.8000   2746.0000      7.6540    178.5000      7.7070   -999.2500
  2316.0000   2750.0000      7.4070    180.8000      8.2030   -999.2500
  2316.2000   2762.0000      6.6670    183.4000      8.7630   -999.2500
  2316.4000   2756.0000      7.0370    181.1000      8.2670   -999.2500
  2316.6000   2748.0000      7.5310    181.0000      8.2460   -999.2500
  2316.8000   2738.0000      8.1480    181.8000      8.4180   -999.2500
  2317.0000   2740.0000      8.0250    180.9000      8.2240   -999.2500
  2317.2000   2744.0000      7.7780    179.3000      7.8800   -999.2500
  2317.4000   2734.0000      8.3950    179.1000      7.8360   -999.2500
  2317.6000   2728.0000      8.7650    178.5000      7.7070   -999.2500
  2317.8000   2724.0000      9.0120    176.1000      7.1900   -999.2500
  2318.0000   2729.9000      8.6480    170.3000      5.9410   -999.2500
  2318.2000   2720.0000      9.2590    167.3000      5.2950   -999.2500
  2318.4000   2712.0000      9.7530    169.4000      5.7470   -999.2500
  2318.6000   2714.0000      9.6300    173.3000      6.5870   -999.2500
  2318.8000   2726.0000      8.8890    174.7000      6.8890   -999.2500
  2319.0000   2729.9000      8.6480    175.5000      7.0610   -999.2500
  2319.2000   2729.9000      8.6480    176.0000      7.1690   -999.2500
  2319.4000   2738.0000      8.1480    176.1000      7.1900   -999.2500
  2319.6000   2736.0000      8.2720    175.1000      6.9750   -999.2500
  2319.8000   2724.0000      9.0120    174.1000      6.7600   -999.2500
  2320.0000   2720.0000      9.2590    174.7000      6.8890   -999.2500
  2320.2000   2722.0000      9.1360    175.8000      7.1260   -999.2500
  2320.4000   2724.0000      9.0120    175.8000      7.1260   -999.2500
  2320.6000   2724.0000      9.0120    175.8000      7.1260   -999.2500
  2320.8000   2718.0000      9.3830    176.9000      7.3630   -999.2500
  2321.0000   2706.0000     10.1230    176.1000      7.1900   -999.2500
  2321.2000   2707.9000     10.0060    174.9000      6.9320   -999.2500
  2321.4000   2720.0000      9.2590    174.8000      6.9100   -999.2500
  2321.6000   2714.0000      9.6300    175.0000      6.9530   -999.2500
  2321.8000   2707.9000     10.0060    176.7000      7.3200   -999.2500
  2322.0000   2706.0000     10.1230    177.9000      7.5780   -999.2500
  2322.2000   2706.0000     10.1230    177.9000      7.5780   -999.2500
  2322.4000   2704.0000     10.2470    178.3000      7.6640   -999.2500
  2322.6000   2702.0000     10.3700    180.1000      8.0520   -999.2500
  2322.8000   2700.0000     10.4940    180.1000      8.0520   -999.2500
  2323.0000   2690.0000     11.1110    176.9000      7.3630   -999.2500
  2323.2000   2704.0000     10.2470    171.1000      6.1130   -999.2500
  2323.4000   2704.0000     10.2470    162.2000      4.1960   -999.2500
  2323.6000   2712.0000      9.7530    163.1000      4.3900   -999.2500
  2323.8000   2728.0000      8.7650    164.5000      4.6920   -999.2500
  2324.0000   2729.9000      8.6480    164.2000      4.6270   -999.2500
  2324.2000   2726.0000      8.8890    163.5000      4.4760   -999.2500
  2324.4000   2716.0000      9.5060    164.1000      4.6060   -999.2500
  2324.6000   2722.0000      9.1360    164.0000      4.5840   -999.2500
  2324.8000   2726.0000      8.8890    162.5000      4.2610   -999.2500
  2325.0000   2738.0000      8.1480    165.7000      4.9500   -999.2500
  2325.2000   2748.0000      7.5310    187.5000      9.6460   -999.2500
  2325.4000   2736.0000      8.2720    198.2000     11.9500   -999.2500
  2325.6000   2666.0000     12.5930    211.4000     14.7930   -999.2500
  2325.8000   2636.0000     14.4440    214.6000     15.4830   -999.2500
  2326.0000   2636.0000     14.4440    205.3000     13.4800   -999.2500
  2326.2000   2668.0000     12.4690    196.6000     11.6060   -999.2500
  2326.4000   2684.0000     11.4810    178.9000      7.7930   -999.2500
  2326.6000   2724.0000      9.0120    170.9000      6.0700   -999.2500
  2326.8000   2898.0000     -1.7280    173.6000      6.6520   -999.2500
  2327.0000   2910.0000     -2.4690    175.3000      7.0180   -999.2500
  2327.2000   2830.0000      2.4690    170.1000      5.8980   -999.2500
  2327.4000   2760.0000      6.7900    167.6000      5.3600   -999.2500
  2327.6000   2706.0000     10.1230    170.0000      5.8760   -999.2500
  2327.8000   2710.0000      9.8770    171.3000      6.1560   -999.2500
  2328.0000   2696.0000     10.7410    171.7000      6.2430   -999.2500
  2328.2000   2681.9000     11.6110    171.9000      6.2860   -999.2500
  2328.4000   2690.0000     11.1110    169.8000      5.8330   -999.2500
  2328.6000   2700.0000     10.4940    172.1000      6.3290   -999.2500
  2328.8000   2751.9000      7.2900    173.0000      6.5230   -999.2500
  2329.0000   2766.0000      6.4200    167.5000      5.3380   -999.2500
  2329.2000   2762.0000      6.6670    164.3000      4.6490   -999.2500
  2329.4000   2768.0000      6.2960    164.4000      4.6700   -999.2500
  2329.6000   2746.0000      7.6540    165.8000      4.9720   -999.2500
  2329.8000   2729.9000      8.6480    168.0000      5.4460   -999.2500
