~Version Information
 VERS. 2.0                             : CWLS Log ASCII Standard - Version 2.0
 WRAP. NO                              : One line per depth step
 PROG.                                 : SeisWare LAS Export
#
~Well Information
#MNEM.UNIT     DATA                    : DESCRIPTION
#----.----     ---------               : -----------------
 STRT.M        1098.0000               : Start Depth
 STOP.M        2633.4000               : End Depth
 STEP.M           0.2000               : Depth Increment
 NULL.          -999.250               : Null Value
 WELL.         DUCE TABLELAND V1U 8A- 22-2-9        : Common Well Name
 UWI .         111082200209W200        : Unique Well ID
 FLD .         TABLELAND               : Field Name
 PROV.         Saskatchewan            : Province / State
#
~Parameter Information
#MNEM.UNIT     VALUE                   : DESCRIPTION
#----.----     ---------               : -----------------
 EREF.M         570.2000               : Elevation of Depth Reference
 DREF.         KB                      : Depth Reference
 EGL .M         563.3000               : Ground Level Elevation
 EKB .M         570.2000               : Kelly Bushing Elevation
#
~Other Information
# SeisWare LAS Export
#
~Curve Information
#MNEM.UNIT        API CODE             : CURVE DESCRIPTION
#----.----        ---------            : -----------------
 DEPT.M                                : Depth
 DEN .K/M3                             : HRDD STANDARD RESOLUTION FORMATION DENSITY
 DENPOR.%                                : 9       COMPRESSIONAL TO SHEAR VELOCITY RATIO
 DT  .US/M                             : 3       DELTA-T COMPRESSIONAL, RECEIVER ARRAY - MONOPOLE P&S
 SONPOR.%                                : 8       POISSON SHEAR/COMPRESSIONAL RATIO
 POR .%                                : Porosity
#
~A     DEPT         DEN      DENPOR          DT      SONPOR         POR
# ...
  1792.4000   2680.0000     11.7280    181.5000      8.3530   -999.2500
  1792.6000   2654.0000     13.3330    184.4000      8.9780   -999.2500
  1792.8000   2637.9000     14.3270    180.7000      8.1810   -999.2500
  1793.0000   2658.0000     13.0860    170.8000      6.0490   -999.2500
  1793.2000   2681.9000     11.6110    169.3000      5.7260   -999.2500
  1793.4000   2686.0000     11.3580    174.4000      6.8240   -999.2500
  1793.6000   2676.0000     11.9750    190.5000     10.2920   -999.2500
  1793.8000   2676.0000     11.9750    211.2000     14.7500   -999.2500
  1794.0000   2650.0000     13.5800    218.7000     16.3660   -999.2500
  1794.2000   2588.0000     17.4070    223.5000     17.4000   -999.2500
  1794.4000   2588.0000     17.4070    226.3000     18.0030   -999.2500
  1794.6000   2584.0000     17.6540    231.5000     19.1230   -999.2500
  1794.8000   2571.9000     18.4010    230.6000     18.9290   -999.2500
  1795.0000   2558.0000     19.2590    223.9000     17.4860   -999.2500
  1795.2000   2544.0000     20.1230    213.6000     15.2670   -999.2500
  1795.4000   2584.0000     17.6540    202.1000     12.7900   -999.2500
  1795.6000   2604.0000     16.4200    188.3000      9.8180   -999.2500
  1795.8000   2606.0000     16.2960    185.2000      9.1500   -999.2500
  1796.0000   2628.0000     14.9380    185.6000      9.2360   -999.2500
  1796.2000   2626.0000     15.0620    191.2000     10.4430   -999.2500
  1796.4000   2612.0000     15.9260    194.0000     11.0460   -999.2500
  1796.6000   2637.9000     14.3270    188.3000      9.8180   -999.2500
  1796.8000   2652.0000     13.4570    182.6000      8.5900   -999.2500
  1797.0000   2654.0000     13.3330    181.1000      8.2670   -999.2500
  1797.2000   2652.0000     13.4570    188.1000      9.7750   -999.2500
  1797.4000   2614.0000     15.8020    212.4000     15.0090   -999.2500
  1797.6000   2574.0000     18.2720    219.5000     16.5380   -999.2500
  1797.8000   2558.0000     19.2590    228.6000     18.4980   -999.2500
  1798.0000   2526.0000     21.2350    228.5000     18.4770   -999.2500
  1798.2000   2516.0000     21.8520    224.5000     17.6150   -999.2500
  1798.4000   2520.0000     21.6050    223.9000     17.4860   -999.2500
  1798.6000   2523.9000     21.3640    228.1000     18.3900   -999.2500
  1798.8000   2504.0000     22.5930    236.2000     20.1350   -999.2500
  1799.0000   2496.0000     23.0860    238.9000     20.7170   -999.2500
  1799.2000   2490.0000     23.4570    239.0000     20.7380   -999.2500
  1799.4000   2510.0000     22.2220    239.5000     20.8460   -999.2500
  1799.6000   2536.0000     20.6170    236.7000     20.2430   -999.2500
  1799.8000   2544.0000     20.1230    233.1000     19.4670   -999.2500
  1800.0000   2540.0000     20.3700    231.0000     19.0150   -999.2500
  1800.2000   2540.0000     20.3700    228.4000     18.4550   -999.2500
  1800.4000   2544.0000     20.1230    217.9000     16.1930   -999.2500
  1800.6000   2568.0000     18.6420    202.4000     12.8550   -999.2500
  1800.8000   2606.0000     16.2960    191.3000     10.4640   -999.2500
  1801.0000   2632.0000     14.6910    180.1000      8.0520   -999.2500
  1801.2000   2622.0000     15.3090    181.4000      8.3320   -999.2500
  1801.4000   2618.0000     15.5560    182.4000      8.5470   -999.2500
  1801.6000   2628.0000     14.9380    174.9000      6.9320   -999.2500
  1801.8000   2658.0000     13.0860    173.5000      6.6300   -999.2500
  1802.0000   2662.0000     12.8400    179.6000      7.9440   -999.2500
  1802.2000   2632.0000     14.6910    200.7000     12.4890   -999.2500
  1802.4000   2602.0000     16.5430    196.2000     11.5200   -999.2500
  1802.6000   2624.0000     15.1850    178.3000      7.6640   -999.2500
  1802.8000   2648.0000     13.7040    173.7000      6.6730   -999.2500
  1803.0000   2674.0000     12.0990    172.6000      6.4360   -999.2500
  1803.2000   2674.0000     12.0990    176.7000      7.3200   -999.2500
  1803.4000   2684.0000     11.4810    178.8000      7.7720   -999.2500
  1803.6000   2678.0000     11.8520    176.9000      7.3630   -999.2500
  1803.8000   2668.0000     12.4690    175.4000      7.0400   -999.2500
  1804.0000   2656.0000     13.2100    175.8000      7.1260   -999.2500
  1804.2000   2654.0000     13.3330    177.1000      7.4060   -999.2500
  1804.4000   2642.0000     14.0740    174.8000      6.9100   -999.2500
  1804.6000   2646.0000     13.8270    173.3000      6.5870   -999.2500
  1804.8000   2664.0000     12.7160    173.7000      6.6730   -999.2500
  1805.0000   2680.0000     11.7280    174.9000      6.9320   -999.2500
  1805.2000   2662.0000     12.8400    174.6000      6.8670   -999.2500
  1805.4000   2662.0000     12.8400    174.8000      6.9100   -999.2500
  1805.6000   2662.0000     12.8400    175.6000      7.0830   -999.2500
  1805.8000   2658.0000     13.0860    176.6000      7.2980   -999.2500
  1806.0000   2642.0000     14.0740    178.2000      7.6430   -999.2500
  1806.2000   2614.0000     15.8020    181.2000      8.2890   -999.2500
  1806.4000   2596.0000     16.9140    189.7000     10.1200   -999.2500
  1806.6000   2570.0000     18.5190    194.8000     11.2180   -999.2500
  1806.8000   2564.0000     18.8890    193.4000     10.9160   -999.2500
  1807.0000   2560.0000     19.1360    189.9000     10.1630   -999.2500
  1807.2000   2566.0000     18.7650    183.8000      8.8490   -999.2500
  1807.4000   2586.0000     17.5310    174.8000      6.9100   -999.2500
  1807.6000   2636.0000     14.4440    171.7000      6.2430   -999.2500
  1807.8000   2640.0000     14.1980    175.0000      6.9530   -999.2500
  1808.0000   2640.0000     14.1980    179.8000      7.9870   -999.2500
  1808.2000   2564.0000     18.8890    189.6000     10.0980   -999.2500
  1808.4000   2556.0000     19.3830    187.0000      9.5380   -999.2500
  1808.6000   2586.0000     17.5310    181.1000      8.2670   -999.2500
  1808.8000   2612.0000     15.9260    187.0000      9.5380   -999.2500
  1809.0000   2592.0000     17.1600    193.5000     10.9380   -999.2500
  1809.2000   2580.0000     17.9010    194.2000     11.0890   -999.2500
  1809.4000   2566.0000     18.7650    191.8000     10.5720   -999.2500
  1809.6000   2584.0000     17.6540    186.5000      9.4300   -999.2500
  1809.8000   2622.0000     15.3090    174.3000      6.8030   -999.2500
  1810.0000   2678.0000     11.8520    171.5000      6.2000   -999.2500
  1810.2000   2674.0000     12.0990    172.3000      6.3720   -999.2500
  1810.4000   2626.0000     15.0620    177.3000      7.4490   -999.2500
  1810.6000   2568.0000     18.6420    191.7000     10.5500   -999.2500
  1810.8000   2560.0000     19.1360    187.2000      9.5810   -999.2500
  1811.0000   2608.0000     16.1730    173.5000      6.6300   -999.2500
  1811.2000   2646.0000     13.8270    171.3000      6.1560   -999.2500
  1811.4000   2654.0000     13.3330    170.2000      5.9200   -999.2500
  1811.6000   2662.0000     12.8400    170.8000      6.0490   -999.2500
  1811.8000   2662.0000     12.8400    172.1000      6.3290   -999.2500
  1812.0000   2654.0000     13.3330    170.8000      6.0490   -999.2500
  1812.2000   2662.0000     12.8400    169.9000      5.8550   -999.2500
  1812.4000   2652.0000     13.4570    170.3000      5.9410   -999.2500
  1812.6000   2648.0000     13.7040    169.5000      5.7690   -999.2500
  1812.8000   2646.0000     13.8270    168.9000      5.6400   -999.2500
  1813.0000   2646.0000     13.8270    173.5000      6.6300   -999.2500
  1813.2000   2626.0000     15.0620    191.6000     10.5290   -999.2500
  1813.4000   2571.9000     18.4010    196.2000     11.5200   -999.2500
  1813.6000   2558.0000     19.2590    193.2000     10.8730   -999.2500
  1813.8000   2578.0000     18.0250    181.0000      8.2460   -999.2500
  1814.0000   2648.0000     13.7040    172.2000      6.3500   -999.2500
  1814.2000   2662.0000     12.8400    172.0000      6.3070   -999.2500
  1814.4000   2654.0000     13.3330    177.9000      7.5780   -999.2500
  1814.6000   2598.0000     16.7900    184.4000      8.9780   -999.2500
