~Version Information
 VERS. 2.0                             : CWLS Log ASCII Standard - Version 2.0
 WRAP. NO                              : One line per depth step
 PROG.                                 : SeisWare LAS Export
#
~Well Information
#MNEM.UNIT     DATA                    : DESCRIPTION
#----.----     ---------               : -----------------
 STRT.M        1098.0000               : Start Depth
 STOP.M        2633.4000               : End Depth
 STEP.M           0.2000               : Depth Increment
 NULL.          -999.250               : Null Value
 WELL.         DUCE TABLELAND V1U 8A- 22-2-9        : Common Well Name
 UWI .         111082200209W200        : Unique Well ID
 FLD .         TABLELAND               : Field Name
 PROV.         Saskatchewan            : Province / State
#
~Parameter Information
#MNEM.UNIT     VALUE                   : DESCRIPTION
#----.----     ---------               : -----------------
 EREF.M         570.2000               : Elevation of Depth Reference
 DREF.         KB                      : Depth Reference
 EGL .M         563.3000               : Ground Level Elevation
 EKB .M         570.2000               : Kelly Bushing Elevation
#
~Other Information
# SeisWare LAS Export
#
~Curve Information
#MNEM.UNIT        API CODE             : CURVE DESCRIPTION
#----.----        ---------            : -----------------
 DEPT.M                                : Depth
 DEN .K/M3                             : HRDD STANDARD RESOLUTION FORMATION DENSITY
 DENPOR.%                                : 9       COMPRESSIONAL TO SHEAR VELOCITY RATIO
 DT  .US/M                             : 3       DELTA-T COMPRESSIONAL, RECEIVER ARRAY - MONOPOLE P&S
 SONPOR.%                                : 8       POISSON SHEAR/COMPRESSIONAL RATIO
 POR .%                                : Porosity
#
~A     DEPT         DEN      DENPOR          DT      SONPOR         POR
# ...
  2106.0000   2664.0000     12.7160    227.2000     18.1970   -999.2500
  2106.2000   2680.0000     11.7280    222.9000     17.2700   -999.2500
  2106.4000   2681.9000     11.6110    198.8000     12.0800   -999.2500
  2106.6000   2684.0000     11.4810    198.2000     11.9500   -999.2500
  2106.8000   2684.0000     11.4810    211.0000     14.7070   -999.2500
  2107.0000   2678.0000     11.8520    218.6000     16.3440   -999.2500
  2107.2000   2664.0000     12.7160    221.9000     17.0550   -999.2500
  2107.4000   2654.0000     13.3330    218.0000     16.2150   -999.2500
  2107.6000   2654.0000     13.3330    212.3000     14.9870   -999.2500
  2107.8000   2648.0000     13.7040    210.6000     14.6210   -999.2500
  2108.0000   2640.0000     14.1980    223.7000     17.4430   -999.2500
  2108.2000   2646.0000     13.8270    231.7000     19.1660   -999.2500
  2108.4000   2672.0000     12.2220    227.7000     18.3040   -999.2500
  2108.6000   2664.0000     12.7160    224.7000     17.6580   -999.2500
  2108.8000   2640.0000     14.1980    225.5000     17.8300   -999.2500
  2109.0000   2640.0000     14.1980    229.0000     18.5840   -999.2500
  2109.2000   2624.0000     15.1850    228.1000     18.3900   -999.2500
  2109.4000   2632.0000     14.6910    226.5000     18.0460   -999.2500
  2109.6000   2630.0000     14.8150    226.3000     18.0030   -999.2500
  2109.8000   2640.0000     14.1980    225.2000     17.7660   -999.2500
  2110.0000   2650.0000     13.5800    217.1000     16.0210   -999.2500
  2110.2000   2648.0000     13.7040    216.4000     15.8700   -999.2500
  2110.4000   2656.0000     13.2100    214.5000     15.4610   -999.2500
  2110.6000   2668.0000     12.4690    210.8000     14.6640   -999.2500
  2110.8000   2666.0000     12.5930    210.2000     14.5350   -999.2500
  2111.0000   2668.0000     12.4690    213.9000     15.3320   -999.2500
  2111.2000   2680.0000     11.7280    210.5000     14.6000   -999.2500
  2111.4000   2692.0000     10.9880    209.5000     14.3840   -999.2500
  2111.6000   2692.0000     10.9880    207.5000     13.9530   -999.2500
  2111.8000   2672.0000     12.2220    201.5000     12.6610   -999.2500
  2112.0000   2670.0000     12.3460    206.6000     13.7600   -999.2500
  2112.2000   2658.0000     13.0860    215.6000     15.6980   -999.2500
  2112.4000   2670.0000     12.3460    212.5000     15.0300   -999.2500
  2112.6000   2690.0000     11.1110    210.1000     14.5130   -999.2500
  2112.8000   2698.0000     10.6170    212.7000     15.0730   -999.2500
  2113.0000   2680.0000     11.7280    217.6000     16.1290   -999.2500
  2113.2000   2676.0000     11.9750    218.8000     16.3870   -999.2500
  2113.4000   2676.0000     11.9750    217.1000     16.0210   -999.2500
  2113.6000   2706.0000     10.1230    214.6000     15.4830   -999.2500
  2113.8000   2729.9000      8.6480    211.1000     14.7290   -999.2500
  2114.0000   2748.0000      7.5310    206.6000     13.7600   -999.2500
  2114.2000   2707.9000     10.0060    207.3000     13.9100   -999.2500
  2114.4000   2670.0000     12.3460    222.2000     17.1200   -999.2500
  2114.6000   2656.0000     13.2100    224.5000     17.6150   -999.2500
  2114.8000   2678.0000     11.8520    205.6000     13.5440   -999.2500
  2115.0000   2806.0000      3.9510    192.5000     10.7230   -999.2500
  2115.2000   2806.0000      3.9510    202.3000     12.8330   -999.2500
  2115.4000   2760.0000      6.7900    203.4000     13.0700   -999.2500
  2115.6000   2728.0000      8.7650    198.9000     12.1010   -999.2500
  2115.8000   2750.0000      7.4070    192.3000     10.6800   -999.2500
  2116.0000   2760.0000      6.7900    182.2000      8.5040   -999.2500
  2116.2000   2780.0000      5.5560    182.5000      8.5690   -999.2500
  2116.4000   2762.0000      6.6670    198.2000     11.9500   -999.2500
  2116.6000   2729.9000      8.6480    211.1000     14.7290   -999.2500
  2116.8000   2678.0000     11.8520    227.2000     18.1970   -999.2500
  2117.0000   2670.0000     12.3460    221.5000     16.9690   -999.2500
  2117.2000   2684.0000     11.4810    200.3000     12.4030   -999.2500
  2117.4000   2758.0000      6.9140    196.0000     11.4760   -999.2500
  2117.6000   2768.0000      6.2960    196.7000     11.6270   -999.2500
  2117.8000   2740.0000      8.0250    198.3000     11.9720   -999.2500
  2118.0000   2718.0000      9.3830    202.3000     12.8330   -999.2500
  2118.2000   2696.0000     10.7410    211.1000     14.7290   -999.2500
  2118.4000   2672.0000     12.2220    213.7000     15.2890   -999.2500
  2118.6000   2658.0000     13.0860    210.7000     14.6430   -999.2500
  2118.8000   2659.9000     12.9690    209.8000     14.4490   -999.2500
  2119.0000   2652.0000     13.4570    211.2000     14.7500   -999.2500
  2119.2000   2636.0000     14.4440    215.4000     15.6550   -999.2500
  2119.4000   2610.0000     16.0490    217.8000     16.1720   -999.2500
  2119.6000   2618.0000     15.5560    217.0000     16.0000   -999.2500
  2119.8000   2624.0000     15.1850    216.7000     15.9350   -999.2500
  2120.0000   2648.0000     13.7040    218.4000     16.3010   -999.2500
  2120.2000   2642.0000     14.0740    220.6000     16.7750   -999.2500
  2120.4000   2650.0000     13.5800    213.2000     15.1810   -999.2500
  2120.6000   2734.0000      8.3950    212.4000     15.0090   -999.2500
  2120.8000   2718.0000      9.3830    222.3000     17.1410   -999.2500
  2121.0000   2681.9000     11.6110    225.9000     17.9170   -999.2500
  2121.2000   2668.0000     12.4690    221.5000     16.9690   -999.2500
  2121.4000   2662.0000     12.8400    218.5000     16.3230   -999.2500
  2121.6000   2659.9000     12.9690    219.4000     16.5170   -999.2500
  2121.8000   2664.0000     12.7160    222.6000     17.2060   -999.2500
  2122.0000   2676.0000     11.9750    229.0000     18.5840   -999.2500
  2122.2000   2659.9000     12.9690    224.1000     17.5290   -999.2500
  2122.4000   2642.0000     14.0740    218.8000     16.3870   -999.2500
  2122.6000   2644.0000     13.9510    218.5000     16.3230   -999.2500
  2122.8000   2646.0000     13.8270    217.6000     16.1290   -999.2500
  2123.0000   2646.0000     13.8270    212.1000     14.9440   -999.2500
  2123.2000   2666.0000     12.5930    204.4000     13.2860   -999.2500
  2123.4000   2688.0000     11.2350    199.0000     12.1230   -999.2500
  2123.6000   2681.9000     11.6110    209.1000     14.2980   -999.2500
  2123.8000   2670.0000     12.3460    216.1000     15.8060   -999.2500
  2124.0000   2698.0000     10.6170    219.6000     16.5600   -999.2500
  2124.2000   2684.0000     11.4810    220.2000     16.6890   -999.2500
  2124.4000   2662.0000     12.8400    218.9000     16.4090   -999.2500
  2124.6000   2659.9000     12.9690    220.5000     16.7530   -999.2500
  2124.8000   2658.0000     13.0860    222.3000     17.1410   -999.2500
  2125.0000   2658.0000     13.0860    217.9000     16.1930   -999.2500
  2125.2000   2658.0000     13.0860    217.9000     16.1930   -999.2500
  2125.4000   2658.0000     13.0860    220.2000     16.6890   -999.2500
  2125.6000   2656.0000     13.2100    223.2000     17.3350   -999.2500
  2125.8000   2650.0000     13.5800    224.3000     17.5720   -999.2500
  2126.0000   2640.0000     14.1980    226.2000     17.9810   -999.2500
  2126.2000   2648.0000     13.7040    229.9000     18.7780   -999.2500
  2126.4000   2642.0000     14.0740    236.7000     20.2430   -999.2500
  2126.6000   2626.0000     15.0620    234.1000     19.6830   -999.2500
  2126.8000   2637.9000     14.3270    226.7000     18.0890   -999.2500
  2127.0000   2674.0000     12.0990    218.0000     16.2150   -999.2500
  2127.2000   2676.0000     11.9750    217.3000     16.0640   -999.2500
  2127.4000   2681.9000     11.6110    221.9000     17.0550   -999.2500
  2127.6000   2690.0000     11.1110    222.3000     17.1410   -999.2500
  2127.8000   2664.0000     12.7160    215.9000     15.7630   -999.2500
  2128.0000   2664.0000     12.7160    207.0000     13.8460   -999.2500
  2128.2000   2678.0000     11.8520    209.6000     14.4060   -999.2500
