~Version Information
 VERS. 2.0                             : CWLS Log ASCII Standard - Version 2.0
 WRAP. NO                              : One line per depth step
 PROG.                                 : SeisWare LAS Export
#
~Well Information
#MNEM.UNIT     DATA                    : DESCRIPTION
#----.----     ---------               : -----------------
 STRT.M        1098.0000               : Start Depth
 STOP.M        2633.4000               : End Depth
 STEP.M           0.2000               : Depth Increment
 NULL.          -999.250               : Null Value
 WELL.         DUCE TABLELAND V1U 8A- 22-2-9        : Common Well Name
 UWI .         111082200209W200        : Unique Well ID
 FLD .         TABLELAND               : Field Name
 PROV.         Saskatchewan            : Province / State
#
~Parameter Information
#MNEM.UNIT     VALUE                   : DESCRIPTION
#----.----     ---------               : -----------------
 EREF.M         570.2000               : Elevation of Depth Reference
 DREF.         KB                      : Depth Reference
 EGL .M         563.3000               : Ground Level Elevation
 EKB .M         570.2000               : Kelly Bushing Elevation
#
~Other Information
# SeisWare LAS Export
#
~Curve Information
#MNEM.UNIT        API CODE             : CURVE DESCRIPTION
#----.----        ---------            : -----------------
 DEPT.M                                : Depth
 DEN .K/M3                             : HRDD STANDARD RESOLUTION FORMATION DENSITY
 DENPOR.%                                : 9       COMPRESSIONAL TO SHEAR VELOCITY RATIO
 DT  .US/M                             : 3       DELTA-T COMPRESSIONAL, RECEIVER ARRAY - MONOPOLE P&S
 SONPOR.%                                : 8       POISSON SHEAR/COMPRESSIONAL RATIO
 POR .%                                : Porosity
#
~A     DEPT         DEN      DENPOR          DT      SONPOR         POR
# ...
  1187.6000   2360.0000     31.4810    271.4000     27.7170   -999.2500
  1187.8000   2318.0000     34.0740    276.3000     28.7720   -999.2500
  1188.0000   2280.0000     36.4200    324.7000     39.1970   -999.2500
  1188.2000   2304.0000     34.9380    370.0000     48.9540   -999.2500
  1188.4000   2384.0000     30.0000    356.4000     46.0240   -999.2500
  1188.6000   2424.0000     27.5310    291.6000     32.0670   -999.2500
  1188.8000   2486.0000     23.7040    253.5000     23.8610   -999.2500
  1189.0000   2484.0000     23.8270    258.6000     24.9600   -999.2500
  1189.2000   2464.0000     25.0620    276.6000     28.8370   -999.2500
  1189.4000   2430.0000     27.1600    286.2000     30.9040   -999.2500
  1189.6000   2368.0000     30.9880    282.5000     30.1070   -999.2500
  1189.8000   2366.0000     31.1110    278.4000     29.2240   -999.2500
  1190.0000   2358.0000     31.6050    273.8000     28.2330   -999.2500
  1190.2000   2390.0000     29.6300    269.3000     27.2640   -999.2500
  1190.4000   2434.0000     26.9140    264.6000     26.2520   -999.2500
  1190.6000   2476.0000     24.3210    261.3000     25.5410   -999.2500
  1190.8000   2454.0000     25.6790    260.2000     25.3040   -999.2500
  1191.0000   2340.0000     32.7160    272.7000     27.9970   -999.2500
  1191.2000   2318.0000     34.0740    276.8000     28.8800   -999.2500
  1191.4000   2320.0000     33.9510    276.4000     28.7940   -999.2500
  1191.6000   2304.0000     34.9380    276.3000     28.7720   -999.2500
  1191.8000   2300.0000     35.1850    279.8000     29.5260   -999.2500
  1192.0000   2304.0000     34.9380    283.6000     30.3440   -999.2500
  1192.2000   2296.0000     35.4320    282.6000     30.1290   -999.2500
  1192.4000   2290.0000     35.8020    284.3000     30.4950   -999.2500
  1192.6000   2290.0000     35.8020    289.8000     31.6800   -999.2500
  1192.8000   2292.0000     35.6790    293.3000     32.4340   -999.2500
  1193.0000   2294.0000     35.5560    288.8000     31.4640   -999.2500
  1193.2000   2314.0000     34.3210    274.0000     28.2770   -999.2500
  1193.4000   2142.0000     44.9380    263.0000     25.9070   -999.2500
  1193.6000   2098.0000     47.6540    270.9000     27.6090   -999.2500
  1193.8000   2136.0000     45.3090    346.6000     43.9140   -999.2500
  1194.0000   2226.0000     39.7530    364.7000     47.8120   -999.2500
  1194.2000   2329.9000     33.3400    374.0000     49.8150   -999.2500
  1194.4000   2348.0000     32.2220    373.1000     49.6210   -999.2500
  1194.6000   2358.0000     31.6050    388.3000     52.8950   -999.2500
  1194.8000   2307.9000     34.6980    411.6000     57.9140   -999.2500
  1195.0000   2282.0000     36.2960    412.7000     58.1510   -999.2500
  1195.2000   2300.0000     35.1850    408.0000     57.1380   -999.2500
  1195.4000   2410.0000     28.3950    376.7000     50.3970   -999.2500
  1195.6000   2372.0000     30.7410    287.4000     31.1630   -999.2500
  1195.8000   2326.0000     33.5800    286.7000     31.0120   -999.2500
  1196.0000   2414.0000     28.1480    309.8000     35.9870   -999.2500
  1196.2000   2456.0000     25.5560    302.5000     34.4150   -999.2500
  1196.4000   2472.0000     24.5680    281.4000     29.8700   -999.2500
  1196.6000   2432.0000     27.0370    248.8000     22.8490   -999.2500
  1196.8000   2426.0000     27.4070    252.8000     23.7100   -999.2500
  1197.0000   2420.0000     27.7780    259.8000     25.2180   -999.2500
  1197.2000   2402.0000     28.8890    260.9000     25.4550   -999.2500
  1197.4000   2374.0000     30.6170    255.0000     24.1840   -999.2500
  1197.6000   2372.0000     30.7410    254.3000     24.0330   -999.2500
  1197.8000   2352.0000     31.9750    258.9000     25.0240   -999.2500
  1198.0000   2340.0000     32.7160    263.6000     26.0370   -999.2500
  1198.2000   2340.0000     32.7160    269.5000     27.3070   -999.2500
  1198.4000   2328.0000     33.4570    275.2000     28.5350   -999.2500
  1198.6000   2382.0000     30.1230    277.4000     29.0090   -999.2500
  1198.8000   2408.0000     28.5190    270.8000     27.5870   -999.2500
  1199.0000   2392.0000     29.5060    265.7000     26.4890   -999.2500
  1199.2000   2338.0000     32.8400    265.1000     26.3600   -999.2500
  1199.4000   2310.0000     34.5680    269.9000     27.3930   -999.2500
  1199.6000   2298.0000     35.3090    277.2000     28.9660   -999.2500
  1199.8000   2296.0000     35.4320    283.7000     30.3660   -999.2500
  1200.0000   2285.9000     36.0560    286.8000     31.0340   -999.2500
  1200.2000   2274.0000     36.7900    288.5000     31.4000   -999.2500
  1200.4000   2266.0000     37.2840    289.6000     31.6370   -999.2500
  1200.6000   2278.0000     36.5430    291.6000     32.0670   -999.2500
  1200.8000   2278.0000     36.5430    294.3000     32.6490   -999.2500
  1201.0000   2282.0000     36.2960    297.0000     33.2300   -999.2500
  1201.2000   2248.0000     38.3950    299.6000     33.7900   -999.2500
  1201.4000   2226.0000     39.7530    312.3000     36.5260   -999.2500
  1201.6000   2224.0000     39.8770    315.1000     37.1290   -999.2500
  1201.8000   2222.0000     40.0000    311.4000     36.3320   -999.2500
  1202.0000   2224.0000     39.8770    307.1000     35.4060   -999.2500
  1202.2000   2228.0000     39.6300    309.2000     35.8580   -999.2500
  1202.4000   2220.0000     40.1230    312.1000     36.4830   -999.2500
  1202.6000   2222.0000     40.0000    315.0000     37.1070   -999.2500
  1202.8000   2258.0000     37.7780    318.2000     37.7970   -999.2500
  1203.0000   2256.0000     37.9010    319.9000     38.1630   -999.2500
  1203.2000   2230.0000     39.5060    314.8000     37.0640   -999.2500
  1203.4000   2238.0000     39.0120    309.6000     35.9440   -999.2500
  1203.6000   2244.0000     38.6420    307.9000     35.5780   -999.2500
  1203.8000   2238.0000     39.0120    309.2000     35.8580   -999.2500
  1204.0000   2214.0000     40.4940    315.2000     37.1500   -999.2500
  1204.2000   2194.0000     41.7280    315.4000     37.1940   -999.2500
  1204.4000   2318.0000     34.0740    297.7000     33.3810   -999.2500
  1204.6000   2328.0000     33.4570    288.8000     31.4640   -999.2500
  1204.8000   2288.0000     35.9260    292.3000     32.2180   -999.2500
  1205.0000   2270.0000     37.0370    292.1000     32.1750   -999.2500
  1205.2000   2280.0000     36.4200    289.6000     31.6370   -999.2500
  1205.4000   2280.0000     36.4200    293.3000     32.4340   -999.2500
  1205.6000   2278.0000     36.5430    293.5000     32.4770   -999.2500
  1205.8000   2300.0000     35.1850    290.7000     31.8740   -999.2500
  1206.0000   2302.0000     35.0620    289.7000     31.6580   -999.2500
  1206.2000   2284.0000     36.1730    292.4000     32.2400   -999.2500
  1206.4000   2292.0000     35.6790    297.9000     33.4240   -999.2500
  1206.6000   2312.0000     34.4440    293.6000     32.4980   -999.2500
  1206.8000   2320.0000     33.9510    283.4000     30.3010   -999.2500
  1207.0000   2314.0000     34.3210    273.4000     28.1470   -999.2500
  1207.2000   2346.0000     32.3460    279.6000     29.4830   -999.2500
  1207.4000   2444.0000     26.2960    294.4000     32.6700   -999.2500
  1207.6000   2534.0000     20.7410    292.6000     32.2830   -999.2500
  1207.8000   2510.0000     22.2220    287.1000     31.0980   -999.2500
  1208.0000   2500.0000     22.8400    276.6000     28.8370   -999.2500
  1208.2000   2462.0000     25.1850    257.8000     24.7870   -999.2500
  1208.4000   2324.0000     33.7040    223.1000     17.3130   -999.2500
  1208.6000   2116.0000     46.5430    241.1000     21.1900   -999.2500
  1208.8000   2010.9000     53.0310    363.7000     47.5970   -999.2500
  1209.0000   2032.0000     51.7280    408.2000     57.1810   -999.2500
  1209.2000   1989.0000     54.3830    396.5000     54.6610   -999.2500
  1209.4000   2130.0000     45.6790    331.5000     40.6610   -999.2500
  1209.6000   2214.0000     40.4940    295.2000     32.8430   -999.2500
  1209.8000   2198.0000     41.4810    264.0000     26.1230   -999.2500
