~Version Information
 VERS. 2.0                             : CWLS Log ASCII Standard - Version 2.0
 WRAP. NO                              : One line per depth step
 PROG.                                 : SeisWare LAS Export
#
~Well Information
#MNEM.UNIT     DATA                    : DESCRIPTION
#----.----     ---------               : -----------------
 STRT.M        1098.0000               : Start Depth
 STOP.M        2633.4000               : End Depth
 STEP.M           0.2000               : Depth Increment
 NULL.          -999.250               : Null Value
 WELL.         DUCE TABLELAND V1U 8A- 22-2-9        : Common Well Name
 UWI .         111082200209W200        : Unique Well ID
 FLD .         TABLELAND               : Field Name
 PROV.         Saskatchewan            : Province / State
#
~Parameter Information
#MNEM.UNIT     VALUE                   : DESCRIPTION
#----.----     ---------               : -----------------
 EREF.M         570.2000               : Elevation of Depth Reference
 DREF.         KB                      : Depth Reference
 EGL .M         563.3000               : Ground Level Elevation
 EKB .M         570.2000               : Kelly Bushing Elevation
#
~Other Information
# SeisWare LAS Export
#
~Curve Information
#MNEM.UNIT        API CODE             : CURVE DESCRIPTION
#----.----        ---------            : -----------------
 DEPT.M                                : Depth
 DEN .K/M3                             : HRDD STANDARD RESOLUTION FORMATION DENSITY
 DENPOR.%                                : 9       COMPRESSIONAL TO SHEAR VELOCITY RATIO
 DT  .US/M                             : 3       DELTA-T COMPRESSIONAL, RECEIVER ARRAY - MONOPOLE P&S
 SONPOR.%                                : 8       POISSON SHEAR/COMPRESSIONAL RATIO
 POR .%                                : Porosity
#
~A     DEPT         DEN      DENPOR          DT      SONPOR         POR
# ...
  1389.2000   2602.0000     16.5430    267.0000     26.7690   -999.2500
  1389.4000   2618.0000     15.5560    247.1000     22.4830   -999.2500
  1389.6000   2628.0000     14.9380    199.0000     12.1230   -999.2500
  1389.8000   2628.0000     14.9380    188.9000      9.9470   -999.2500
  1390.0000   2620.0000     15.4320    188.8000      9.9260   -999.2500
  1390.2000   2614.0000     15.8020    185.0000      9.1070   -999.2500
  1390.4000   2604.0000     16.4200    182.8000      8.6330   -999.2500
  1390.6000   2588.0000     17.4070    187.0000      9.5380   -999.2500
  1390.8000   2556.0000     19.3830    221.2000     16.9040   -999.2500
  1391.0000   2520.0000     21.6050    265.9000     26.5320   -999.2500
  1391.2000   2496.0000     23.0860    269.7000     27.3500   -999.2500
  1391.4000   2506.0000     22.4690    276.3000     28.7720   -999.2500
  1391.6000   2482.0000     23.9510    286.1000     30.8830   -999.2500
  1391.8000   2454.0000     25.6790    303.9000     34.7170   -999.2500
  1392.0000   2438.0000     26.6670    314.7000     37.0430   -999.2500
  1392.2000   2280.0000     36.4200    330.0000     40.3380   -999.2500
  1392.4000   1943.0000     57.2220    409.8000     57.5260   -999.2500
  1392.6000   1609.0000     77.8400    463.4000     69.0710   -999.2500
  1392.8000   1639.0000     75.9880    462.3000     68.8340   -999.2500
  1393.0000   1755.0000     68.8270    461.8000     68.7260   -999.2500
  1393.2000   1874.0000     61.4810    478.2000     72.2580   -999.2500
  1393.4000   1712.0000     71.4810    489.2000     74.6280   -999.2500
  1393.6000   1609.0000     77.8400    458.2000     67.9510   -999.2500
  1393.8000   1869.0000     61.7900    383.4000     51.8400   -999.2500
  1394.0000   2278.0000     36.5430    232.8000     19.4030   -999.2500
  1394.2000   2558.0000     19.2590    185.6000      9.2360   -999.2500
  1394.4000   2610.0000     16.0490    200.8000     12.5100   -999.2500
  1394.6000   2261.9000     37.5370    271.1000     27.6520   -999.2500
  1394.8000   2222.0000     40.0000    243.8000     21.7720   -999.2500
  1395.0000   2342.0000     32.5930    180.8000      8.2030   -999.2500
  1395.2000   2644.0000     13.9510    153.2000      2.2580   -999.2500
  1395.4000   2512.0000     22.0990    216.3000     15.8490   -999.2500
  1395.6000   2194.0000     41.7280    346.3000     43.8490   -999.2500
  1395.8000   2098.0000     47.6540    356.1000     45.9600   -999.2500
  1396.0000   2268.0000     37.1600    319.4000     38.0550   -999.2500
  1396.2000   2442.0000     26.4200    282.9000     30.1940   -999.2500
  1396.4000   2484.0000     23.8270    255.0000     24.1840   -999.2500
  1396.6000   2306.0000     34.8150    269.0000     27.2000   -999.2500
  1396.8000   1916.0000     58.8890    417.6000     59.2060   -999.2500
  1397.0000   1790.0000     66.6670    393.3000     53.9720   -999.2500
  1397.2000   2016.0000     52.7160    353.3000     45.3570   -999.2500
  1397.4000   2126.0000     45.9260    337.9000     42.0400   -999.2500
  1397.6000   2184.0000     42.3460    301.9000     34.2860   -999.2500
  1397.8000   2062.0000     49.8770    316.0000     37.3230   -999.2500
  1398.0000   1899.0000     59.9380    336.8000     41.8030   -999.2500
  1398.2000   1759.0000     68.5800    314.4000     36.9780   -999.2500
  1398.4000   1726.0000     70.6170    416.8000     59.0340   -999.2500
  1398.6000   1787.0000     66.8520    437.6000     63.5140   -999.2500
  1398.8000   1762.0000     68.3950    408.0000     57.1380   -999.2500
  1399.0000   1847.0000     63.1480    373.0000     49.6000   -999.2500
  1399.2000   2027.0000     52.0370    275.6000     28.6210   -999.2500
  1399.4000   1920.0000     58.6420    273.2000     28.1040   -999.2500
  1399.6000   1778.0000     67.4070    301.5000     34.2000   -999.2500
  1399.8000   1808.0000     65.5560    317.9000     37.7320   -999.2500
  1400.0000   1793.0000     66.4810    339.6000     42.4060   -999.2500
  1400.2000   1788.0000     66.7900    349.8000     44.6030   -999.2500
  1400.4000   1831.0000     64.1360    348.4000     44.3010   -999.2500
  1400.6000   1747.0000     69.3210    330.2000     40.3810   -999.2500
  1400.8000   1636.0000     76.1730    325.3000     39.3260   -999.2500
  1401.0000   1738.0000     69.8770    303.4000     34.6090   -999.2500
  1401.2000   1928.0000     58.1480    305.7000     35.1040   -999.2500
  1401.4000   2074.0000     49.1360    357.9000     46.3470   -999.2500
  1401.6000   2078.0000     48.8890    331.4000     40.6400   -999.2500
  1401.8000   2256.0000     37.9010    252.4000     23.6240   -999.2500
  1402.0000   2500.0000     22.8400    221.9000     17.0550   -999.2500
  1402.2000   2604.0000     16.4200    209.7000     14.4270   -999.2500
  1402.4000   2614.0000     15.8020    207.9000     14.0400   -999.2500
  1402.6000   2620.0000     15.4320    214.6000     15.4830   -999.2500
  1402.8000   2472.0000     24.5680    229.0000     18.5840   -999.2500
  1403.0000   2280.0000     36.4200    288.5000     31.4000   -999.2500
  1403.2000   2152.0000     44.3210    321.1000     38.4210   -999.2500
  1403.4000   1828.0000     64.3210    313.4000     36.7630   -999.2500
  1403.6000   1628.0000     76.6670    323.5000     38.9380   -999.2500
  1403.8000   1515.0000     83.6420    443.8000     64.8490   -999.2500
  1404.0000   1593.9000     78.7720    447.2000     65.5810   -999.2500
  1404.2000   1970.0000     55.5560    449.9000     66.1630   -999.2500
  1404.4000   1895.0000     60.1850    456.2000     67.5200   -999.2500
  1404.6000   1799.0000     66.1110    454.9000     67.2400   -999.2500
  1404.8000   1758.0000     68.6420    443.6000     64.8060   -999.2500
  1405.0000   1790.0000     66.6670    400.7000     55.5660   -999.2500
  1405.2000   1701.0000     72.1600    409.3000     57.4180   -999.2500
  1405.4000   1519.0000     83.3950    437.8000     63.5570   -999.2500
  1405.6000   1549.0000     81.5430    429.0000     61.6610   -999.2500
  1405.8000   1662.0000     74.5680    365.6000     48.0060   -999.2500
  1406.0000   2014.0000     52.8400    315.9000     37.3010   -999.2500
  1406.2000   2192.0000     41.8520    294.5000     32.6920   -999.2500
  1406.4000   2252.0000     38.1480    284.9000     30.6240   -999.2500
  1406.6000   2420.0000     27.7780    291.4000     32.0240   -999.2500
  1406.8000   2414.0000     28.1480    301.4000     34.1780   -999.2500
  1407.0000   2342.0000     32.5930    301.0000     34.0920   -999.2500
  1407.2000   2350.0000     32.0990    282.9000     30.1940   -999.2500
  1407.4000   2484.0000     23.8270    265.8000     26.5100   -999.2500
  1407.6000   2540.0000     20.3700    297.6000     33.3600   -999.2500
  1407.8000   2078.0000     48.8890    410.4000     57.6550   -999.2500
  1408.0000   1762.9000     68.3400    471.9000     70.9010   -999.2500
  1408.2000   1940.0000     57.4070    411.8000     57.9570   -999.2500
  1408.4000   2176.0000     42.8400    279.8000     29.5260   -999.2500
  1408.6000   2434.0000     26.9140    259.2000     25.0890   -999.2500
  1408.8000   2166.0000     43.4570    305.9000     35.1470   -999.2500
  1409.0000   2052.0000     50.4940    328.5000     40.0150   -999.2500
  1409.2000   2196.0000     41.6050    321.5000     38.5070   -999.2500
  1409.4000   2302.0000     35.0620    309.1000     35.8370   -999.2500
  1409.6000   2344.0000     32.4690    294.9000     32.7780   -999.2500
  1409.8000   2416.0000     28.0250    285.7000     30.7970   -999.2500
  1410.0000   2460.0000     25.3090    293.0000     32.3690   -999.2500
  1410.2000   2428.0000     27.2840    295.9000     32.9940   -999.2500
  1410.4000   2480.0000     24.0740    260.0000     25.2610   -999.2500
  1410.6000   2526.0000     21.2350    235.9000     20.0700   -999.2500
  1410.8000   2534.0000     20.7410    259.3000     25.1100   -999.2500
  1411.0000   2574.0000     18.2720    269.1000     27.2210   -999.2500
  1411.2000   2564.0000     18.8890    251.8000     23.4950   -999.2500
  1411.4000   2548.0000     19.8770    248.7000     22.8270   -999.2500
