~Version Information
 VERS. 2.0                             : CWLS Log ASCII Standard - Version 2.0
 WRAP. NO                              : One line per depth step
 PROG.                                 : SeisWare LAS Export
#
~Well Information
#MNEM.UNIT     DATA                    : DESCRIPTION
#----.----     ---------               : -----------------
 STRT.M        1098.0000               : Start Depth
 STOP.M        2633.4000               : End Depth
 STEP.M           0.2000               : Depth Increment
 NULL.          -999.250               : Null Value
 WELL.         DUCE TABLELAND V1U 8A- 22-2-9        : Common Well Name
 UWI .         111082200209W200        : Unique Well ID
 FLD .         TABLELAND               : Field Name
 PROV.         Saskatchewan            : Province / State
#
~Parameter Information
#MNEM.UNIT     VALUE                   : DESCRIPTION
#----.----     ---------               : -----------------
 EREF.M         570.2000               : Elevation of Depth Reference
 DREF.         KB                      : Depth Reference
 EGL .M         563.3000               : Ground Level Elevation
 EKB .M         570.2000               : Kelly Bushing Elevation
#
~Other Information
# SeisWare LAS Export
#
~Curve Information
#MNEM.UNIT        API CODE             : CURVE DESCRIPTION
#----.----        ---------            : -----------------
 DEPT.M                                : Depth
 DEN .K/M3                             : HRDD STANDARD RESOLUTION FORMATION DENSITY
 DENPOR.%                                : 9       COMPRESSIONAL TO SHEAR VELOCITY RATIO
 DT  .US/M                             : 3       DELTA-T COMPRESSIONAL, RECEIVER ARRAY - MONOPOLE P&S
 SONPOR.%                                : 8       POISSON SHEAR/COMPRESSIONAL RATIO
 POR .%                                : Porosity
#
~A     DEPT         DEN      DENPOR          DT      SONPOR         POR
# ...
  1994.0000   2678.0000     11.8520    176.8000      7.3410   -999.2500
  1994.2000   2670.0000     12.3460    175.2000      6.9960   -999.2500
  1994.4000   2676.0000     11.9750    174.8000      6.9100   -999.2500
  1994.6000   2666.0000     12.5930    173.7000      6.6730   -999.2500
  1994.8000   2668.0000     12.4690    173.1000      6.5440   -999.2500
  1995.0000   2686.0000     11.3580    176.7000      7.3200   -999.2500
  1995.2000   2702.0000     10.3700    174.3000      6.8030   -999.2500
  1995.4000   2696.0000     10.7410    170.5000      5.9840   -999.2500
  1995.6000   2706.0000     10.1230    171.5000      6.2000   -999.2500
  1995.8000   2728.0000      8.7650    174.2000      6.7810   -999.2500
  1996.0000   2710.0000      9.8770    174.8000      6.9100   -999.2500
  1996.2000   2694.0000     10.8640    175.3000      7.0180   -999.2500
  1996.4000   2686.0000     11.3580    175.3000      7.0180   -999.2500
  1996.6000   2681.9000     11.6110    172.4000      6.3930   -999.2500
  1996.8000   2678.0000     11.8520    172.0000      6.3070   -999.2500
  1997.0000   2676.0000     11.9750    173.1000      6.5440   -999.2500
  1997.2000   2684.0000     11.4810    175.1000      6.9750   -999.2500
  1997.4000   2684.0000     11.4810    177.2000      7.4270   -999.2500
  1997.6000   2696.0000     10.7410    178.7000      7.7500   -999.2500
  1997.8000   2696.0000     10.7410    180.6000      8.1600   -999.2500
  1998.0000   2692.0000     10.9880    180.1000      8.0520   -999.2500
  1998.2000   2684.0000     11.4810    179.2000      7.8580   -999.2500
  1998.4000   2692.0000     10.9880    177.2000      7.4270   -999.2500
  1998.6000   2694.0000     10.8640    177.2000      7.4270   -999.2500
  1998.8000   2688.0000     11.2350    178.6000      7.7290   -999.2500
  1999.0000   2681.9000     11.6110    177.3000      7.4490   -999.2500
  1999.2000   2674.0000     12.0990    176.1000      7.1900   -999.2500
  1999.4000   2674.0000     12.0990    175.2000      6.9960   -999.2500
  1999.6000   2684.0000     11.4810    175.2000      6.9960   -999.2500
  1999.8000   2692.0000     10.9880    176.0000      7.1690   -999.2500
  2000.0000   2698.0000     10.6170    177.0000      7.3840   -999.2500
  2000.2000   2681.9000     11.6110    177.3000      7.4490   -999.2500
  2000.4000   2686.0000     11.3580    176.5000      7.2760   -999.2500
  2000.6000   2718.0000      9.3830    174.7000      6.8890   -999.2500
  2000.8000   2726.0000      8.8890    174.4000      6.8240   -999.2500
  2001.0000   2674.0000     12.0990    173.8000      6.6950   -999.2500
  2001.2000   2674.0000     12.0990    175.1000      6.9750   -999.2500
  2001.4000   2680.0000     11.7280    177.3000      7.4490   -999.2500
  2001.6000   2690.0000     11.1110    175.2000      6.9960   -999.2500
  2001.8000   2698.0000     10.6170    174.7000      6.8890   -999.2500
  2002.0000   2680.0000     11.7280    173.6000      6.6520   -999.2500
  2002.2000   2662.0000     12.8400    171.7000      6.2430   -999.2500
  2002.4000   2672.0000     12.2220    176.1000      7.1900   -999.2500
  2002.6000   2668.0000     12.4690    177.9000      7.5780   -999.2500
  2002.8000   2662.0000     12.8400    175.5000      7.0610   -999.2500
  2003.0000   2668.0000     12.4690    173.5000      6.6300   -999.2500
  2003.2000   2674.0000     12.0990    173.3000      6.5870   -999.2500
  2003.4000   2684.0000     11.4810    174.2000      6.7810   -999.2500
  2003.6000   2688.0000     11.2350    173.3000      6.5870   -999.2500
  2003.8000   2684.0000     11.4810    172.9000      6.5010   -999.2500
  2004.0000   2696.0000     10.7410    174.1000      6.7600   -999.2500
  2004.2000   2659.9000     12.9690    174.2000      6.7810   -999.2500
  2004.4000   2654.0000     13.3330    174.1000      6.7600   -999.2500
  2004.6000   2674.0000     12.0990    173.4000      6.6090   -999.2500
  2004.8000   2686.0000     11.3580    172.3000      6.3720   -999.2500
  2005.0000   2694.0000     10.8640    171.8000      6.2640   -999.2500
  2005.2000   2686.0000     11.3580    173.6000      6.6520   -999.2500
  2005.4000   2676.0000     11.9750    172.4000      6.3930   -999.2500
  2005.6000   2681.9000     11.6110    171.8000      6.2640   -999.2500
  2005.8000   2681.9000     11.6110    173.3000      6.5870   -999.2500
  2006.0000   2664.0000     12.7160    174.2000      6.7810   -999.2500
  2006.2000   2664.0000     12.7160    174.5000      6.8460   -999.2500
  2006.4000   2684.0000     11.4810    176.0000      7.1690   -999.2500
  2006.6000   2734.0000      8.3950    179.3000      7.8800   -999.2500
  2006.8000   2702.0000     10.3700    177.7000      7.5350   -999.2500
  2007.0000   2674.0000     12.0990    173.4000      6.6090   -999.2500
  2007.2000   2688.0000     11.2350    175.0000      6.9530   -999.2500
  2007.4000   2680.0000     11.7280    175.6000      7.0830   -999.2500
  2007.6000   2659.9000     12.9690    175.5000      7.0610   -999.2500
  2007.8000   2674.0000     12.0990    176.1000      7.1900   -999.2500
  2008.0000   2696.0000     10.7410    175.1000      6.9750   -999.2500
  2008.2000   2696.0000     10.7410    173.8000      6.6950   -999.2500
  2008.4000   2688.0000     11.2350    172.9000      6.5010   -999.2500
  2008.6000   2690.0000     11.1110    172.8000      6.4800   -999.2500
  2008.8000   2692.0000     10.9880    173.4000      6.6090   -999.2500
  2009.0000   2688.0000     11.2350    174.0000      6.7380   -999.2500
  2009.2000   2702.0000     10.3700    173.4000      6.6090   -999.2500
  2009.4000   2696.0000     10.7410    172.0000      6.3070   -999.2500
  2009.6000   2704.0000     10.2470    172.8000      6.4800   -999.2500
  2009.8000   2698.0000     10.6170    174.5000      6.8460   -999.2500
  2010.0000   2684.0000     11.4810    175.7000      7.1040   -999.2500
  2010.2000   2678.0000     11.8520    175.8000      7.1260   -999.2500
  2010.4000   2692.0000     10.9880    175.3000      7.0180   -999.2500
  2010.6000   2707.9000     10.0060    174.7000      6.8890   -999.2500
  2010.8000   2698.0000     10.6170    175.1000      6.9750   -999.2500
  2011.0000   2692.0000     10.9880    175.9000      7.1470   -999.2500
  2011.2000   2686.0000     11.3580    176.5000      7.2760   -999.2500
  2011.4000   2684.0000     11.4810    176.9000      7.3630   -999.2500
  2011.6000   2700.0000     10.4940    175.9000      7.1470   -999.2500
  2011.8000   2706.0000     10.1230    176.4000      7.2550   -999.2500
  2012.0000   2678.0000     11.8520    176.6000      7.2980   -999.2500
  2012.2000   2666.0000     12.5930    175.5000      7.0610   -999.2500
  2012.4000   2668.0000     12.4690    178.5000      7.7070   -999.2500
  2012.6000   2672.0000     12.2220    177.5000      7.4920   -999.2500
  2012.8000   2674.0000     12.0990    174.1000      6.7600   -999.2500
  2013.0000   2678.0000     11.8520    171.8000      6.2640   -999.2500
  2013.2000   2692.0000     10.9880    172.0000      6.3070   -999.2500
  2013.4000   2700.0000     10.4940    172.4000      6.3930   -999.2500
  2013.6000   2704.0000     10.2470    173.3000      6.5870   -999.2500
  2013.8000   2688.0000     11.2350    172.9000      6.5010   -999.2500
  2014.0000   2686.0000     11.3580    171.9000      6.2860   -999.2500
  2014.2000   2688.0000     11.2350    171.0000      6.0920   -999.2500
  2014.4000   2688.0000     11.2350    170.6000      6.0060   -999.2500
  2014.6000   2688.0000     11.2350    171.8000      6.2640   -999.2500
  2014.8000   2692.0000     10.9880    172.3000      6.3720   -999.2500
  2015.0000   2684.0000     11.4810    171.1000      6.1130   -999.2500
  2015.2000   2688.0000     11.2350    170.0000      5.8760   -999.2500
  2015.4000   2700.0000     10.4940    169.7000      5.8120   -999.2500
  2015.6000   2706.0000     10.1230    170.4000      5.9630   -999.2500
  2015.8000   2694.0000     10.8640    169.7000      5.8120   -999.2500
  2016.0000   2698.0000     10.6170    169.0000      5.6610   -999.2500
  2016.2000   2704.0000     10.2470    170.2000      5.9200   -999.2500
